station_id,station_name,province,district,latitude,longitude,timestamp,data_source,data_quality,data_time,error_reason,temperature_current,temperature_max,temperature_min,temperature_avg,humidity_current,humidity_max,humidity_min,humidity_avg,pressure_current,pressure_max,pressure_min,pressure_avg,wind_speed_current,wind_speed_max,wind_speed_min,wind_speed_avg,wind_direction_current,wind_direction_avg,rain_current,rain_max,rain_min,rain_avg,rain_total,cloud_cover_current,cloud_cover_max,cloud_cover_min,cloud_cover_avg,visibility_current,visibility_max,visibility_min,visibility_avg,thunder_probability
AG_AT,Huyện An Phú - An Giang,An Giang,An Phú,10.8333,105.0833,2026-03-12 03:01:12,openmeteo,high,2026-03-12T10:00,,28.6,34.8,22.6,27.9,73,94,38,69.3,1013.3,1015.4,1007.4,1011.4,3.4,13.3,0.8,6.4,58,101.3,0.0,0.9,0.1,0.1,2.1,68,100,0,56.0,24.1,24.1,13.1,24.0,5
AG_CL,Huyện Châu Phú - An Giang,An Giang,Châu Phú,10.5667,105.1667,2026-03-12 03:01:13,openmeteo,high,2026-03-12T10:00,,28.4,34.9,23.2,27.8,74,92,38,69.1,1013.3,1015.3,1007.6,1011.5,5.8,14.7,0.0,6.7,86,115.1,0.0,0.2,0.1,0.0,0.6,68,100,36,62.2,24.1,24.1,24.1,24.1,5
AG_CP,Huyện Châu Thành - An Giang,An Giang,Châu Thành,10.45,105.25,2026-03-12 03:01:14,openmeteo,high,2026-03-12T10:00,,28.4,34.6,22.5,27.3,74,95,38,72.6,1013.2,1015.3,1007.8,1011.5,8.0,15.9,0.4,7.3,85,115.7,0.0,0.1,0.1,0.0,0.4,69,93,20,63.9,24.1,24.1,24.1,24.1,5
AG_CT,Huyện Chợ Mới - An Giang,An Giang,Chợ Mới,10.5333,105.3833,2026-03-12 03:01:13,openmeteo,high,2026-03-12T10:00,,28.5,34.6,22.8,27.5,73,94,38,71.6,1013.2,1015.3,1007.7,1011.4,7.3,15.6,1.5,7.2,79,119.4,0.0,0.3,0.1,0.0,0.8,73,94,7,62.3,24.1,24.1,13.7,24.0,5
AG_PT,Huyện Phú Tân - An Giang,An Giang,Phú Tân,10.65,105.2833,2026-03-12 03:01:14,openmeteo,high,2026-03-12T10:00,,28.6,35.1,22.7,27.7,74,93,38,69.9,1013.3,1015.3,1007.5,1011.4,5.5,13.7,0.0,6.3,79,116.6,0.0,0.1,0.1,0.0,0.2,76,100,15,61.9,24.1,24.1,24.1,24.1,5
AG_TV,Huyện Thoại Sơn - An Giang,An Giang,Thoại Sơn,10.2667,105.2667,2026-03-12 03:01:13,openmeteo,high,2026-03-12T10:00,,28.7,34.5,23.0,27.4,72,94,41,72.1,1013.1,1015.2,1007.8,1011.5,10.5,16.6,1.6,8.3,86,103.1,0.0,0.8,0.1,0.1,2.1,54,85,0,59.5,24.1,24.1,8.6,23.8,5
AG_TX,Huyện Tri Tôn - An Giang,An Giang,Tri Tôn,10.4167,105.0,2026-03-12 03:01:14,openmeteo,high,2026-03-12T10:00,,28.4,34.3,23.3,27.7,74,93,40,71.1,1013.2,1015.2,1007.8,1011.5,8.3,15.8,0.4,7.4,90,106.8,0.0,0.2,0.1,0.0,0.6,69,89,0,62.5,24.1,24.1,5.7,24.0,5
AG_TN,Huyện Tịnh Biên - An Giang,An Giang,Tịnh Biên,10.55,105.0,2026-03-12 03:01:14,openmeteo,high,2026-03-12T10:00,,28.8,34.9,23.5,28.1,73,91,38,68.8,1013.3,1015.3,1007.8,1011.6,7.2,15.5,0.4,7.5,87,107.2,0.0,0.1,0.1,0.0,0.6,69,87,34,65.2,24.1,24.1,5.7,24.0,5
AG_CD,Thành phố Châu Đốc - An Giang,An Giang,Châu Đốc,10.7,105.1167,2026-03-12 03:01:12,openmeteo,high,2026-03-12T10:00,,28.2,34.8,22.9,27.8,75,94,39,69.5,1013.3,1015.3,1007.4,1011.4,3.7,13.9,0.5,6.3,79,101.5,0.0,0.8,0.1,0.1,1.9,73,100,19,58.3,24.1,24.1,13.1,24.0,5
AG_LX,Thành phố Long Xuyên - An Giang,An Giang,Long Xuyên,10.3865,105.4351,2026-03-12 03:01:12,openmeteo,high,2026-03-12T10:00,,28.8,34.8,22.9,27.4,71,94,38,71.1,1013.1,1015.2,1007.7,1011.4,9.3,17.6,1.1,8.0,77,110.8,0.0,0.3,0.1,0.1,1.4,61,94,0,61.6,24.1,24.1,13.7,24.0,5
AG_AP,Thị xã Tân Châu - An Giang,An Giang,Tân Châu,10.8,105.2167,2026-03-12 03:01:12,openmeteo,high,2026-03-12T10:00,,28.8,35.0,22.5,27.8,71,95,38,69.4,1013.3,1015.3,1007.4,1011.4,4.9,14.0,0.7,6.4,73,110.4,0.0,0.2,0.1,0.0,0.5,73,87,11,59.1,24.1,24.1,24.1,24.1,5
BR_CH,Huyện Châu Đức - Bà Rịa - Vũng Tàu,Bà Rịa - Vũng Tàu,Châu Đức,10.65,107.25,2026-03-12 03:01:11,openmeteo,high,2026-03-12T10:00,,29.0,33.8,22.0,27.0,59,88,39,67.2,1013.1,1015.2,1008.1,1011.6,4.0,24.9,1.0,13.5,90,94.6,0.0,0.6,0.2,0.1,1.8,26,98,0,53.7,24.1,24.1,12.9,24.0,5
BR_CD,Huyện Côn Đảo - Bà Rịa - Vũng Tàu,Bà Rịa - Vũng Tàu,Côn Đảo,8.6822,106.6089,2026-03-12 03:01:10,openmeteo,high,2026-03-12T10:00,,26.2,27.0,25.7,26.2,80,84,75,79.7,1012.8,1014.7,1008.8,1011.7,31.2,37.3,17.7,28.1,71,74.1,0.0,0.0,0.0,0.0,0.0,58,70,15,47.5,24.1,24.1,24.1,24.1,5
BR_LD,Huyện Long Điền - Bà Rịa - Vũng Tàu,Bà Rịa - Vũng Tàu,Long Điền,10.4667,107.2333,2026-03-12 03:01:11,openmeteo,high,2026-03-12T10:00,,29.4,33.4,23.4,27.6,60,87,43,67.8,1013.1,1015.0,1008.5,1011.7,7.6,27.5,2.4,16.8,85,93.0,0.0,0.3,0.1,0.0,0.8,47,95,0,48.5,24.1,24.1,24.1,24.1,5
BR_XM,Huyện Xuyên Mộc - Bà Rịa - Vũng Tàu,Bà Rịa - Vũng Tàu,Xuyên Mộc,10.6333,107.4333,2026-03-12 03:01:11,openmeteo,high,2026-03-12T10:00,,29.3,33.9,22.5,26.7,59,86,39,69.1,1013.2,1015.2,1008.2,1011.8,4.7,22.6,0.5,11.8,99,90.3,0.0,0.4,0.1,0.0,1.1,8,100,0,53.5,24.1,24.1,24.1,24.1,5
BR_DD,Huyện Đất Đỏ - Bà Rịa - Vũng Tàu,Bà Rịa - Vũng Tàu,Đất Đỏ,10.5,107.2833,2026-03-12 03:01:11,openmeteo,high,2026-03-12T10:00,,29.4,33.3,23.4,27.5,60,87,43,67.8,1013.1,1015.0,1008.5,1011.7,7.6,27.5,2.4,16.8,85,93.0,0.0,0.3,0.1,0.0,0.8,47,95,0,48.5,24.1,24.1,24.1,24.1,5
BR_BR,Thành phố Bà Rịa - Bà Rịa - Vũng Tàu,Bà Rịa - Vũng Tàu,Bà Rịa,10.5,107.1833,2026-03-12 03:01:10,openmeteo,high,2026-03-12T10:00,,29.0,32.7,24.6,27.8,62,81,45,68.2,1013.1,1015.1,1008.4,1011.6,3.6,20.0,1.0,11.6,84,100.0,0.0,0.2,0.1,0.0,0.3,50,91,0,52.2,24.1,24.1,24.1,24.1,5
BR_VT,Thành phố Vũng Tàu - Bà Rịa - Vũng Tàu,Bà Rịa - Vũng Tàu,Vũng Tàu,10.346,107.0843,2026-03-12 03:01:09,openmeteo,high,2026-03-12T10:00,,29.0,32.7,24.6,27.8,62,81,45,68.2,1013.1,1015.1,1008.4,1011.6,3.6,20.0,1.0,11.6,84,100.0,0.0,0.2,0.1,0.0,0.3,50,91,0,52.2,24.1,24.1,24.1,24.1,5
BR_PT,Thị xã Phú Mỹ - Bà Rịa - Vũng Tàu,Bà Rịa - Vũng Tàu,Phú Mỹ,10.6,107.05,2026-03-12 03:01:11,openmeteo,high,2026-03-12T10:00,,29.0,35.2,23.9,27.8,65,91,35,68.0,1013.0,1015.2,1008.1,1011.5,2.5,21.5,1.0,9.3,352,108.8,0.0,0.7,0.1,0.1,1.5,82,100,0,55.6,24.1,24.1,15.8,24.0,5
BR_CD2,Đảo Côn Sơn - Bà Rịa - Vũng Tàu,Bà Rịa - Vũng Tàu,Côn Đảo,8.6822,106.6089,2026-03-12 03:02:05,openmeteo,high,2026-03-12T10:00,,26.2,27.0,25.7,26.2,80,84,75,79.7,1012.8,1014.7,1008.8,1011.7,31.2,37.3,17.7,28.1,71,74.1,0.0,0.0,0.0,0.0,0.0,58,70,15,47.5,24.1,24.1,24.1,24.1,5
BD_BA,Huyện Bàu Bàng - Bình Dương,Bình Dương,Bàu Bàng,11.25,106.8,2026-03-12 03:01:06,openmeteo,high,2026-03-12T10:00,,29.0,35.7,21.8,27.8,55,90,29,64.7,1013.1,1015.2,1007.2,1011.3,7.7,20.2,0.4,5.9,11,90.5,0.0,1.6,0.9,0.2,3.7,39,99,0,49.5,24.1,24.1,15.7,24.0,5
BD_BC,Huyện Bắc Tân Uyên - Bình Dương,Bình Dương,Bắc Tân Uyên,11.1667,106.8667,2026-03-12 03:01:07,openmeteo,high,2026-03-12T10:00,,29.3,35.8,22.0,27.9,53,89,30,64.3,1013.1,1015.1,1007.2,1011.4,7.2,19.5,0.4,6.2,357,114.8,0.0,0.8,0.1,0.1,2.7,27,98,0,52.6,24.1,24.1,15.7,24.0,5
BD_DH,Huyện Dầu Tiếng - Bình Dương,Bình Dương,Dầu Tiếng,11.2667,106.3667,2026-03-12 03:01:07,openmeteo,high,2026-03-12T10:00,,29.8,35.4,22.1,28.1,63,94,35,67.0,1013.1,1015.2,1007.1,1011.3,10.9,19.3,0.4,6.4,354,78.5,0.0,0.7,0.2,0.1,2.1,45,100,0,45.1,24.1,24.1,17.6,24.0,5
BD_PG,Huyện Phú Giáo - Bình Dương,Bình Dương,Phú Giáo,11.3333,106.7667,2026-03-12 03:01:07,openmeteo,high,2026-03-12T10:00,,29.0,35.7,21.7,27.8,55,90,29,64.7,1013.1,1015.2,1007.2,1011.3,7.5,19.8,0.4,5.7,17,76.2,0.0,1.8,0.1,0.2,4.6,31,96,0,48.7,24.1,24.1,15.7,24.0,5
BD_TDM,Thành phố Thủ Dầu Một - Bình Dương,Bình Dương,Thủ Dầu Một,10.9804,106.6519,2026-03-12 03:01:05,openmeteo,high,2026-03-12T10:00,,29.9,36.0,22.5,28.0,61,91,33,67.2,1013.0,1015.2,1007.2,1011.3,11.2,18.0,0.0,6.5,358,112.1,0.0,0.5,0.1,0.0,1.1,51,92,0,50.9,24.1,24.1,12.4,24.0,5
BD_BG,Thị xã Bến Cát - Bình Dương,Bình Dương,Bến Cát,11.15,106.6,2026-03-12 03:01:05,openmeteo,high,2026-03-12T10:00,,29.8,36.0,22.3,27.9,56,91,32,66.3,1013.0,1015.2,1007.2,1011.3,9.7,16.9,0.4,6.1,360,114.0,0.0,0.7,0.1,0.1,2.0,33,97,0,54.2,24.1,24.1,15.6,24.0,5
BD_DT,Thị xã Dĩ An - Bình Dương,Bình Dương,Dĩ An,10.9,106.7667,2026-03-12 03:01:06,openmeteo,high,2026-03-12T10:00,,29.6,35.8,22.9,27.9,61,92,31,67.0,1013.0,1015.1,1007.3,1011.3,10.1,19.6,0.4,7.3,358,115.8,0.0,0.1,0.1,0.0,0.4,44,97,0,53.8,24.1,24.1,12.4,24.0,5
BD_TN,Thị xã Thuận An - Bình Dương,Bình Dương,Thuận An,10.9333,106.7,2026-03-12 03:01:06,openmeteo,high,2026-03-12T10:00,,29.8,36.0,23.1,28.1,61,92,31,67.0,1013.0,1015.1,1007.3,1011.3,10.1,19.6,0.4,7.3,358,115.8,0.0,0.1,0.1,0.0,0.4,44,97,0,53.8,24.1,24.1,12.4,24.0,5
BD_TU,Thị xã Tân Uyên - Bình Dương,Bình Dương,Tân Uyên,11.0667,106.8,2026-03-12 03:01:05,openmeteo,high,2026-03-12T10:00,,30.0,36.2,22.5,28.1,56,91,32,66.3,1013.0,1015.2,1007.2,1011.3,9.7,16.9,0.4,6.1,360,114.0,0.0,0.7,0.1,0.1,2.0,33,97,0,54.2,24.1,24.1,12.4,24.0,5
BP_DX,Thành phố Đồng Xoài - Bình Phước,Bình Phước,Đồng Xoài,11.5349,106.8823,2026-03-12 03:01:57,openmeteo,high,2026-03-12T10:00,,29.1,35.9,21.5,28.1,54,91,29,62.6,1013.1,1015.2,1007.1,1011.3,7.9,17.5,0.4,5.2,30,47.6,0.0,2.9,0.1,0.3,7.2,5,100,0,47.2,24.1,24.1,13.1,24.0,5
BP_BL,Thị xã Bình Long - Bình Phước,Bình Phước,Bình Long,11.65,106.6,2026-03-12 03:01:58,openmeteo,high,2026-03-12T10:00,,29.8,35.5,21.4,28.1,50,91,33,63.1,1013.1,1015.3,1007.0,1011.3,9.1,11.3,1.0,4.9,34,27.3,0.0,3.7,0.1,0.3,7.3,0,100,0,47.4,24.1,24.1,23.4,24.1,5
BP_PL,Thị xã Phước Long - Bình Phước,Bình Phước,Phước Long,11.8333,106.9667,2026-03-12 03:01:58,openmeteo,high,2026-03-12T10:00,,29.1,35.7,21.1,28.0,56,90,29,59.4,1013.4,1015.3,1007.0,1011.4,8.4,12.9,0.5,4.5,47,37.9,0.0,0.1,0.1,0.0,0.4,13,100,0,43.1,24.1,24.1,20.8,24.1,5
BT_HD,Huyện Hàm Thuận Bắc - Bình Thuận,Bình Thuận,Hàm Thuận Bắc,11.0833,108.1167,2026-03-12 03:01:44,openmeteo,high,2026-03-12T10:00,,28.0,31.4,19.3,24.9,59,93,40,72.8,1014.0,1016.2,1008.7,1012.9,5.4,18.2,1.8,6.6,132,75.0,0.0,2.6,0.1,0.2,4.8,10,100,0,53.9,24.1,24.1,24.1,24.1,5
BT_PH,Huyện Phú Quý - Bình Thuận,Bình Thuận,Phú Quý,10.5,108.9333,2026-03-12 03:01:45,openmeteo,high,2026-03-12T10:00,,25.0,26.0,24.5,25.3,83,87,74,82.1,1013.6,1015.5,1009.5,1012.4,39.3,44.7,20.1,34.9,41,47.0,0.0,0.1,0.1,0.0,0.3,62,91,5,53.2,24.1,24.1,24.1,24.1,0
BT_PT,Thành phố Phan Thiết - Bình Thuận,Bình Thuận,Phan Thiết,10.9333,108.1,2026-03-12 03:01:44,openmeteo,high,2026-03-12T10:00,,29.0,33.8,21.7,26.7,58,88,35,66.0,1013.3,1015.5,1008.4,1012.1,8.6,26.3,3.0,10.9,90,68.7,0.0,0.1,0.1,0.0,0.3,28,100,0,55.3,24.1,24.1,24.1,24.1,5
BT_LC,Thị xã La Gi - Bình Thuận,Bình Thuận,La Gi,10.6667,107.7667,2026-03-12 03:01:44,openmeteo,high,2026-03-12T10:00,,28.9,32.2,21.2,26.4,61,90,45,69.0,1013.3,1015.4,1008.8,1012.1,9.2,25.0,3.1,14.6,79,84.0,0.0,0.5,0.1,0.0,0.7,52,93,7,52.1,24.1,24.1,24.1,24.1,5
BT_PQ2,Đảo Phú Quý - Bình Thuận,Bình Thuận,Phú Quý,10.5,108.9333,2026-03-12 03:02:06,openmeteo,high,2026-03-12T10:00,,25.0,26.0,24.5,25.3,83,87,74,82.1,1013.6,1015.5,1009.5,1012.4,39.3,44.7,20.1,34.9,41,47.0,0.0,0.1,0.1,0.0,0.3,62,91,5,53.2,24.1,24.1,24.1,24.1,0
BD_AL,Huyện An Lão - Bình Định,Bình Định,An Lão,14.5667,108.9,2026-03-12 03:01:41,openmeteo,high,2026-03-12T10:00,,22.5,29.8,17.8,21.8,86,100,54,85.5,1018.4,1020.5,1012.1,1016.9,8.4,14.8,0.0,6.2,31,13.6,0.0,0.2,0.1,0.1,2.0,90,100,21,74.1,23.7,24.1,6.8,22.0,10
BD_HV,Huyện Hoài Ân - Bình Định,Bình Định,Hoài Ân,14.35,108.9,2026-03-12 03:01:41,openmeteo,high,2026-03-12T10:00,,22.0,28.2,16.9,20.8,74,98,49,78.8,1017.7,1019.8,1012.4,1016.4,13.5,21.6,1.0,8.9,34,24.7,0.0,0.2,0.1,0.0,0.5,87,100,33,70.0,24.1,24.1,11.0,22.7,0
BD_QN,Thành phố Quy Nhơn - Bình Định,Bình Định,Quy Nhơn,13.7667,109.2333,2026-03-12 03:01:40,openmeteo,high,2026-03-12T10:00,,24.7,29.3,21.5,24.3,77,93,58,78.5,1016.9,1018.5,1011.5,1015.2,15.7,21.3,0.5,8.7,20,1.4,0.0,0.6,0.1,0.2,4.7,87,100,28,71.9,16.8,24.1,5.2,21.8,0
BL_HH,Huyện Hòa Bình - Bạc Liêu,Bạc Liêu,Hòa Bình,9.2833,105.6333,2026-03-12 03:01:36,openmeteo,high,2026-03-12T10:00,,29.7,32.9,24.2,27.5,59,87,44,69.5,1012.8,1014.8,1008.3,1011.5,23.6,28.1,8.0,18.0,82,93.7,0.0,0.0,0.0,0.0,0.0,68,94,9,54.4,24.1,24.1,24.1,24.1,5
BL_HB,Huyện Hồng Dân - Bạc Liêu,Bạc Liêu,Hồng Dân,9.55,105.4167,2026-03-12 03:01:35,openmeteo,high,2026-03-12T10:00,,29.6,33.2,23.1,27.5,62,91,44,70.3,1012.9,1014.8,1007.8,1011.4,19.2,24.5,5.5,13.2,85,96.7,0.0,0.0,0.0,0.0,0.0,74,94,0,53.9,24.1,24.1,16.5,24.0,5
BL_PT,Huyện Phước Long - Bạc Liêu,Bạc Liêu,Phước Long,9.4333,105.4667,2026-03-12 03:01:35,openmeteo,high,2026-03-12T10:00,,29.7,33.2,23.6,27.6,59,89,44,69.6,1012.8,1014.8,1008.0,1011.5,21.4,26.0,5.8,15.6,82,94.9,0.0,0.0,0.0,0.0,0.0,72,100,0,55.2,24.1,24.1,16.5,24.0,5
BL_VL,Huyện Vĩnh Lợi - Bạc Liêu,Bạc Liêu,Vĩnh Lợi,9.35,105.5667,2026-03-12 03:01:35,openmeteo,high,2026-03-12T10:00,,29.7,32.9,24.2,27.5,59,87,44,69.5,1012.8,1014.8,1008.3,1011.5,23.6,28.1,8.0,18.0,82,93.7,0.0,0.0,0.0,0.0,0.0,68,94,9,54.4,24.1,24.1,24.1,24.1,5
BL_DD,Huyện Đông Hải - Bạc Liêu,Bạc Liêu,Đông Hải,9.1667,105.4333,2026-03-12 03:01:35,openmeteo,high,2026-03-12T10:00,,29.4,32.5,24.2,27.2,63,88,49,72.7,1012.8,1014.7,1008.4,1011.5,25.6,29.9,7.1,18.5,86,94.3,0.0,0.3,0.1,0.0,0.5,69,100,0,56.7,24.1,24.1,24.1,24.1,5
BL_BL,Thành phố Bạc Liêu - Bạc Liêu,Bạc Liêu,Bạc Liêu,9.2833,105.7167,2026-03-12 03:01:35,openmeteo,high,2026-03-12T10:00,,29.6,32.8,25.0,27.6,60,84,47,69.5,1012.9,1014.9,1008.5,1011.7,25.9,31.1,10.6,21.2,81,90.7,0.0,0.0,0.0,0.0,0.0,76,89,7,51.5,24.1,24.1,24.1,24.1,5
BL_GD,Thị xã Giá Rai - Bạc Liêu,Bạc Liêu,Giá Rai,9.2333,105.4667,2026-03-12 03:01:34,openmeteo,high,2026-03-12T10:00,,29.7,32.9,23.4,27.3,60,91,46,71.4,1012.8,1014.7,1008.0,1011.5,21.0,24.5,5.7,14.7,84,94.6,0.0,0.2,0.2,0.0,0.2,69,100,0,56.6,24.1,24.1,24.1,24.1,5
BG_LN,Huyện Lạng Giang - Bắc Giang,Bắc Giang,Lạng Giang,21.35,106.25,2026-03-12 03:01:56,openmeteo,high,2026-03-12T10:00,,23.0,27.1,17.3,21.5,68,93,44,78.7,1021.1,1022.6,1010.8,1017.4,8.2,13.0,0.7,5.5,49,140.0,0.0,0.2,0.1,0.0,1.2,88,100,34,83.7,24.1,24.1,13.9,24.0,0
BG_YL,Huyện Yên Thế - Bắc Giang,Bắc Giang,Yên Thế,21.5167,106.1167,2026-03-12 03:01:57,openmeteo,high,2026-03-12T10:00,,23.0,26.4,16.3,21.3,64,95,43,79.0,1021.2,1022.6,1010.7,1017.4,9.3,13.4,0.0,5.3,54,132.3,0.0,0.1,0.1,0.0,1.2,80,100,31,84.7,24.1,24.1,16.4,24.0,0
BG_BG,Thành phố Bắc Giang - Bắc Giang,Bắc Giang,Bắc Giang,21.2667,106.2,2026-03-12 03:01:57,openmeteo,high,2026-03-12T10:00,,22.5,27.3,18.0,21.6,75,95,46,80.1,1021.2,1022.5,1010.6,1017.4,5.8,13.9,0.5,6.6,22,130.7,0.0,0.2,0.1,0.0,1.1,87,100,34,84.8,24.1,24.1,13.9,24.0,0
BK_BB,Huyện Ba Bể - Bắc Kạn,Bắc Kạn,Ba Bể,22.4167,105.75,2026-03-12 03:01:50,openmeteo,high,2026-03-12T10:00,,20.3,24.0,15.2,19.6,72,94,56,81.5,1021.8,1022.8,1011.3,1017.9,8.6,12.1,1.0,5.0,75,165.0,0.0,0.5,0.1,0.1,2.1,87,100,45,89.4,24.1,24.1,6.8,21.6,0
BK_PT,Huyện Pác Nặm - Bắc Kạn,Bắc Kạn,Pác Nặm,22.6333,105.6667,2026-03-12 03:01:50,openmeteo,high,2026-03-12T10:00,,19.8,24.6,14.5,18.9,72,95,57,83.0,1021.6,1022.8,1010.7,1017.8,5.1,10.5,0.8,4.3,86,167.8,0.0,0.4,0.1,0.1,1.3,100,100,48,91.5,24.1,24.1,0.1,18.9,0
BK_BK,Thành phố Bắc Kạn - Bắc Kạn,Bắc Kạn,Bắc Kạn,22.15,105.8333,2026-03-12 03:01:50,openmeteo,high,2026-03-12T10:00,,20.3,22.6,15.1,19.5,70,95,55,82.1,1021.8,1023.0,1011.7,1018.0,8.9,12.4,0.4,4.7,76,146.7,0.0,0.1,0.1,0.0,0.6,90,100,50,90.6,24.1,24.1,10.7,23.5,0
BN_YL,Huyện Yên Phong - Bắc Ninh,Bắc Ninh,Yên Phong,21.2,105.95,2026-03-12 03:01:54,openmeteo,high,2026-03-12T10:00,,22.2,27.4,17.6,21.4,75,96,46,80.2,1021.3,1022.5,1010.2,1017.3,4.9,15.8,0.5,7.2,17,121.5,0.0,0.1,0.1,0.0,0.1,76,100,49,87.9,24.1,24.1,17.0,23.9,0
BN_BN,Thành phố Bắc Ninh - Bắc Ninh,Bắc Ninh,Bắc Ninh,21.1861,106.0764,2026-03-12 03:01:54,openmeteo,high,2026-03-12T10:00,,22.1,27.5,17.6,21.3,75,97,46,80.7,1021.3,1022.5,1010.4,1017.3,4.0,15.7,0.8,7.7,360,128.5,0.0,0.1,0.1,0.0,0.3,82,100,40,86.2,24.1,24.1,17.0,23.9,0
BN_TS,Thành phố Từ Sơn - Bắc Ninh,Bắc Ninh,Từ Sơn,21.1167,105.9667,2026-03-12 03:01:54,openmeteo,high,2026-03-12T10:00,,22.1,27.5,17.6,21.3,75,97,46,80.7,1021.3,1022.5,1010.4,1017.3,4.0,15.7,0.8,7.7,360,128.5,0.0,0.1,0.1,0.0,0.3,82,100,40,86.2,24.1,24.1,18.5,23.9,0
BT_BL,Huyện Ba Tri - Bến Tre,Bến Tre,Ba Tri,10.0667,106.6,2026-03-12 03:01:23,openmeteo,high,2026-03-12T10:00,,28.8,32.9,23.8,27.4,64,88,45,69.9,1013.2,1015.1,1008.6,1011.7,11.0,26.1,5.6,15.7,67,96.6,0.0,0.0,0.0,0.0,0.0,91,91,0,52.3,24.1,24.1,24.1,24.1,5
BT_BH,Huyện Bình Đại - Bến Tre,Bến Tre,Bình Đại,10.1833,106.7,2026-03-12 03:01:24,openmeteo,high,2026-03-12T10:00,,28.8,32.9,23.8,27.4,64,88,45,69.9,1013.2,1015.1,1008.6,1011.7,11.0,26.1,5.6,15.7,67,96.6,0.0,0.0,0.0,0.0,0.0,91,91,0,52.3,24.1,24.1,24.1,24.1,5
BT_CL,Huyện Châu Thành - Bến Tre,Bến Tre,Châu Thành,10.3,106.2667,2026-03-12 03:01:25,openmeteo,high,2026-03-12T10:00,,28.6,33.4,24.0,27.7,65,90,43,69.0,1013.2,1015.2,1008.1,1011.6,11.6,22.2,3.6,13.7,68,100.0,0.0,0.2,0.1,0.0,0.8,90,90,0,54.5,24.1,24.1,24.1,24.1,5
BT_CT,Huyện Chợ Lách - Bến Tre,Bến Tre,Chợ Lách,10.2667,106.15,2026-03-12 03:01:24,openmeteo,high,2026-03-12T10:00,,28.9,33.5,23.6,27.6,65,92,40,69.7,1013.1,1015.1,1008.0,1011.5,12.5,21.5,2.9,12.1,72,101.0,0.0,0.9,0.1,0.1,3.1,62,86,0,55.8,24.1,24.1,24.1,24.1,5
BT_GD,Huyện Giồng Trôm - Bến Tre,Bến Tre,Giồng Trôm,10.1667,106.4667,2026-03-12 03:01:24,openmeteo,high,2026-03-12T10:00,,28.3,33.3,23.9,27.6,67,87,44,69.5,1013.2,1015.1,1008.3,1011.6,9.7,24.9,4.8,14.2,63,98.8,0.0,0.1,0.1,0.0,0.3,91,95,0,52.7,24.1,24.1,24.1,24.1,5
BT_MB,Huyện Mỏ Cày Bắc - Bến Tre,Bến Tre,Mỏ Cày Bắc,10.1333,106.3,2026-03-12 03:01:24,openmeteo,high,2026-03-12T10:00,,28.8,33.4,23.4,27.6,64,92,42,69.1,1013.1,1015.2,1008.0,1011.5,13.0,22.6,4.3,13.3,71,99.8,0.0,0.3,0.1,0.0,1.1,83,89,10,54.2,24.1,24.1,24.1,24.1,5
BT_MN,Huyện Mỏ Cày Nam - Bến Tre,Bến Tre,Mỏ Cày Nam,10.0667,106.3333,2026-03-12 03:01:25,openmeteo,high,2026-03-12T10:00,,28.5,33.6,23.6,27.7,65,89,42,68.5,1013.2,1015.1,1008.3,1011.6,11.2,24.4,5.6,14.5,69,99.2,0.0,0.1,0.1,0.0,0.3,87,91,0,53.9,24.1,24.1,24.1,24.1,5
BT_TP,Huyện Thạnh Phú - Bến Tre,Bến Tre,Thạnh Phú,9.9333,106.5333,2026-03-12 03:01:26,openmeteo,high,2026-03-12T10:00,,29.2,32.2,25.1,27.5,64,83,48,69.1,1013.1,1015.1,1008.6,1011.8,17.5,28.5,10.0,18.9,71,92.3,0.0,0.0,0.0,0.0,0.0,87,88,5,52.7,24.1,24.1,24.1,24.1,5
BT_BT,Thành phố Bến Tre - Bến Tre,Bến Tre,Bến Tre,10.2333,106.3833,2026-03-12 03:01:24,openmeteo,high,2026-03-12T10:00,,28.6,33.4,24.0,27.7,65,90,43,69.0,1013.2,1015.2,1008.1,1011.6,11.6,22.2,3.6,13.7,68,100.0,0.0,0.2,0.1,0.0,0.8,90,90,0,54.5,24.1,24.1,24.1,24.1,5
CB_BL,Huyện Bảo Lâm - Cao Bằng,Cao Bằng,Bảo Lâm,22.8667,105.5,2026-03-12 03:01:49,openmeteo,high,2026-03-12T10:00,,20.1,25.8,15.2,19.3,71,96,52,81.1,1021.8,1023.1,1009.9,1017.6,8.2,13.0,0.4,5.6,49,178.5,0.0,0.3,0.1,0.1,1.8,92,100,62,92.7,24.1,24.1,0.3,20.4,0
CB_BC,Huyện Bảo Lạc - Cao Bằng,Cao Bằng,Bảo Lạc,22.95,105.7333,2026-03-12 03:01:49,openmeteo,high,2026-03-12T10:00,,20.6,26.9,14.7,19.9,62,95,50,76.5,1022.0,1023.0,1009.6,1017.4,11.4,17.3,0.4,5.8,62,189.2,0.0,0.1,0.1,0.0,0.3,82,100,36,86.6,24.1,24.1,3.7,22.6,0
CB_CB,Thành phố Cao Bằng - Cao Bằng,Cao Bằng,Cao Bằng,22.6667,106.25,2026-03-12 03:01:49,openmeteo,high,2026-03-12T10:00,,20.0,25.4,15.1,19.5,72,96,51,79.4,1022.2,1023.0,1010.5,1017.7,10.5,14.0,0.5,4.8,49,166.9,0.0,0.7,0.7,0.1,2.1,84,100,27,84.3,24.1,24.1,14.0,23.6,0
CM_CM,Huyện Cái Nước - Cà Mau,Cà Mau,Cái Nước,9.0,105.0333,2026-03-12 03:01:19,openmeteo,high,2026-03-12T10:00,,29.5,32.1,23.9,27.1,63,94,50,74.3,1012.8,1014.7,1008.3,1011.5,21.2,25.1,4.7,14.8,90,95.0,0.0,0.3,0.1,0.0,0.6,61,93,4,56.6,24.1,24.1,19.7,24.1,5
CM_NG,Huyện Ngọc Hiển - Cà Mau,Cà Mau,Ngọc Hiển,8.6667,105.05,2026-03-12 03:01:20,openmeteo,high,2026-03-12T10:00,,28.8,30.5,25.4,27.2,66,85,57,73.8,1013.0,1014.8,1008.7,1011.6,25.0,32.0,8.8,20.2,83,88.4,0.0,0.0,0.0,0.0,0.0,63,100,11,46.6,24.1,24.1,24.1,24.1,5
CM_NC,Huyện Năm Căn - Cà Mau,Cà Mau,Năm Căn,8.75,105.0,2026-03-12 03:01:19,openmeteo,high,2026-03-12T10:00,,29.2,31.6,24.9,27.4,63,90,52,73.1,1012.7,1014.6,1008.3,1011.5,25.6,31.0,7.6,19.0,87,91.1,0.0,0.0,0.0,0.0,0.0,63,84,2,48.2,24.1,24.1,24.1,24.1,5
CM_PT,Huyện Phú Tân - Cà Mau,Cà Mau,Phú Tân,8.8833,104.8833,2026-03-12 03:01:19,openmeteo,high,2026-03-12T10:00,,28.3,30.3,25.5,27.4,70,88,58,75.0,1012.6,1014.5,1008.1,1011.4,30.2,37.9,14.0,24.4,91,92.5,0.0,0.6,0.1,0.1,1.6,51,91,13,50.0,24.1,24.1,19.7,24.1,5
CM_TV,Huyện Thới Bình - Cà Mau,Cà Mau,Thới Bình,9.35,105.1,2026-03-12 03:01:20,openmeteo,high,2026-03-12T10:00,,29.5,32.8,22.8,26.9,63,95,45,74.1,1012.8,1014.7,1008.0,1011.4,18.0,22.3,1.3,11.4,89,98.6,0.0,1.0,0.1,0.2,4.5,52,100,0,54.1,24.1,24.1,21.7,24.1,5
CM_TR,Huyện Trần Văn Thời - Cà Mau,Cà Mau,Trần Văn Thời,9.0833,104.9667,2026-03-12 03:01:20,openmeteo,high,2026-03-12T10:00,,29.0,32.0,23.8,27.0,66,94,48,75.7,1012.7,1014.6,1008.3,1011.4,22.7,27.1,1.6,15.7,92,94.6,0.0,2.2,0.1,0.3,6.5,49,100,6,55.5,24.1,24.1,19.7,24.1,5
CM_UM,Huyện U Minh - Cà Mau,Cà Mau,U Minh,9.4,104.9833,2026-03-12 03:01:21,openmeteo,high,2026-03-12T10:00,,28.8,32.5,23.9,27.2,69,93,48,75.0,1012.7,1014.7,1008.1,1011.4,20.9,26.0,0.5,13.8,90,96.1,0.0,2.4,0.1,0.4,9.3,42,100,13,56.9,24.1,24.1,18.0,24.0,5
CM_DH,Huyện Đầm Dơi - Cà Mau,Cà Mau,Đầm Dơi,8.9833,105.2,2026-03-12 03:01:19,openmeteo,high,2026-03-12T10:00,,29.2,31.7,24.6,27.2,65,90,52,73.4,1012.9,1014.7,1008.5,1011.6,25.3,31.0,6.2,18.9,86,91.6,0.0,0.0,0.0,0.0,0.0,66,100,3,56.2,24.1,24.1,24.1,24.1,5
CM_TP,Thành phố Cà Mau - Cà Mau,Cà Mau,Cà Mau,9.1769,105.1521,2026-03-12 03:01:18,openmeteo,high,2026-03-12T10:00,,29.3,32.1,23.6,26.9,64,92,47,74.6,1012.8,1014.7,1008.2,1011.5,20.5,24.4,4.7,14.0,89,96.9,0.0,0.5,0.1,0.1,2.1,62,95,0,57.5,24.1,24.1,23.1,24.1,5
CT_CC,Huyện Cờ Đỏ - Cần Thơ,Cần Thơ,Cờ Đỏ,10.1,105.4333,2026-03-12 03:00:41,openmeteo,high,2026-03-12T10:00,,28.8,34.0,23.0,27.2,70,95,40,72.6,1013.1,1015.1,1007.8,1011.5,13.0,19.1,2.6,9.8,84,103.9,0.0,1.3,0.1,0.2,4.2,56,93,0,55.1,24.1,24.1,22.5,24.1,5
CT_PT,Huyện Phong Điền - Cần Thơ,Cần Thơ,Phong Điền,10.25,105.6667,2026-03-12 03:00:42,openmeteo,high,2026-03-12T10:00,,29.1,34.2,23.2,27.4,68,94,39,70.8,1013.1,1015.1,1007.8,1011.5,12.5,20.3,2.9,10.4,78,103.7,0.0,2.2,0.1,0.2,4.8,53,90,0,53.3,24.1,24.1,13.5,24.0,5
CT_TN,Huyện Thới Lai - Cần Thơ,Cần Thơ,Thới Lai,10.0667,105.55,2026-03-12 03:00:41,openmeteo,high,2026-03-12T10:00,,28.8,34.0,23.0,27.2,70,95,40,72.6,1013.1,1015.1,1007.8,1011.5,13.0,19.1,2.6,9.8,84,103.9,0.0,1.3,0.1,0.2,4.2,56,93,0,55.1,24.1,24.1,22.5,24.1,5
CT_VT,Huyện Vĩnh Thạnh - Cần Thơ,Cần Thơ,Vĩnh Thạnh,10.2167,105.4,2026-03-12 03:00:40,openmeteo,high,2026-03-12T10:00,,28.8,34.5,23.0,27.4,71,94,40,71.6,1013.1,1015.1,1007.8,1011.5,10.1,16.2,1.1,8.2,84,104.5,0.0,0.7,0.1,0.1,2.0,53,89,2,59.2,24.1,24.1,24.1,24.1,5
CT_BT,Quận Bình Thủy - Cần Thơ,Cần Thơ,Bình Thủy,10.0816,105.7378,2026-03-12 03:00:40,openmeteo,high,2026-03-12T10:00,,29.1,34.2,23.3,27.5,66,91,41,70.7,1013.1,1015.1,1007.9,1011.5,13.1,20.0,3.1,10.7,74,102.1,0.0,2.2,0.1,0.2,5.7,66,99,0,53.7,24.1,24.1,15.6,24.0,5
CT_CR,Quận Cái Răng - Cần Thơ,Cần Thơ,Cái Răng,10.0,105.7667,2026-03-12 03:00:40,openmeteo,high,2026-03-12T10:00,,29.0,33.7,23.2,27.3,68,93,41,71.0,1013.0,1015.1,1008.0,1011.5,14.7,20.9,4.0,11.3,79,99.9,0.0,1.4,0.1,0.1,3.3,67,99,0,53.3,24.1,24.1,15.6,24.0,5
CT_NK,Quận Ninh Kiều - Cần Thơ,Cần Thơ,Ninh Kiều,10.0452,105.7469,2026-03-12 03:00:39,openmeteo,high,2026-03-12T10:00,,29.0,33.7,23.2,27.3,68,93,41,71.0,1013.0,1015.1,1008.0,1011.5,14.7,20.9,4.0,11.3,79,99.9,0.0,1.4,0.1,0.1,3.3,67,99,0,53.3,24.1,24.1,15.6,24.0,5
CT_TL,Quận Thốt Nốt - Cần Thơ,Cần Thơ,Thốt Nốt,10.2667,105.5333,2026-03-12 03:00:40,openmeteo,high,2026-03-12T10:00,,29.0,34.6,23.1,27.5,68,94,38,70.8,1013.1,1015.1,1007.8,1011.4,11.4,19.2,2.1,9.5,79,105.9,0.0,1.0,0.1,0.1,1.5,55,82,0,56.2,24.1,24.1,24.1,24.1,5
CT_OT,Quận Ô Môn - Cần Thơ,Cần Thơ,Ô Môn,10.1167,105.6333,2026-03-12 03:00:41,openmeteo,high,2026-03-12T10:00,,29.0,34.0,23.1,27.4,69,94,40,71.0,1013.1,1015.1,1007.9,1011.5,13.6,20.5,3.6,10.7,79,102.5,0.0,1.1,0.1,0.1,3.1,56,94,0,54.5,24.1,24.1,15.6,24.0,5
GL_CP,Huyện Chư Prông - Gia Lai,Gia Lai,Chư Prông,13.5833,107.8333,2026-03-12 03:00:59,openmeteo,high,2026-03-12T10:00,,28.3,34.3,19.3,25.7,52,80,32,59.4,1014.9,1017.3,1008.7,1013.4,19.1,27.2,5.2,15.4,79,84.7,0.0,0.0,0.0,0.0,0.0,47,94,0,31.6,24.1,24.1,24.1,24.1,5
GL_CH,Huyện Chư Păh - Gia Lai,Gia Lai,Chư Păh,14.1667,107.9333,2026-03-12 03:00:59,openmeteo,high,2026-03-12T10:00,,23.9,30.3,16.8,22.1,60,87,33,62.9,1015.9,1018.5,1009.7,1014.6,14.4,20.7,1.5,9.9,53,49.0,0.0,0.0,0.0,0.0,0.0,66,93,0,45.9,24.1,24.1,24.1,24.1,0
GL_CS,Huyện Chư Sê - Gia Lai,Gia Lai,Chư Sê,13.75,108.0833,2026-03-12 03:01:00,openmeteo,high,2026-03-12T10:00,,24.4,29.9,17.1,22.1,59,84,38,66.1,1015.9,1018.3,1010.3,1014.7,21.1,27.9,8.7,16.0,73,74.9,0.0,0.0,0.0,0.0,0.0,63,94,0,36.1,24.1,24.1,24.1,24.1,0
GL_IA,Huyện Ia Grai - Gia Lai,Gia Lai,Ia Grai,13.9833,107.75,2026-03-12 03:01:01,openmeteo,high,2026-03-12T10:00,,28.3,33.9,18.8,26.2,52,84,30,57.7,1014.9,1017.4,1008.6,1013.2,11.3,18.9,0.4,7.2,68,86.3,0.0,0.0,0.0,0.0,0.0,49,98,0,36.8,24.1,24.1,24.1,24.1,5
GL_KB,Huyện KBang - Gia Lai,Gia Lai,KBang,14.35,108.5,2026-03-12 03:01:01,openmeteo,high,2026-03-12T10:00,,20.3,26.7,14.6,18.9,75,100,49,80.2,1018.0,1020.5,1012.2,1017.0,16.4,23.1,3.0,10.9,52,58.7,0.0,0.0,0.0,0.0,0.0,85,99,21,70.5,24.1,24.1,0.1,18.3,0
GL_KR,Huyện Krông Pa - Gia Lai,Gia Lai,Krông Pa,13.2167,108.6667,2026-03-12 03:01:01,openmeteo,high,2026-03-12T10:00,,23.1,30.2,18.4,22.3,74,94,44,75.1,1016.9,1018.9,1010.9,1015.3,11.7,23.0,4.0,10.4,72,89.6,0.0,0.0,0.0,0.0,0.0,89,100,0,68.1,24.1,24.1,16.1,24.0,0
GL_KN,Huyện Kông Chro - Gia Lai,Gia Lai,Kông Chro,13.7167,108.5167,2026-03-12 03:01:01,openmeteo,high,2026-03-12T10:00,,25.0,31.6,18.9,23.0,61,82,36,66.7,1016.0,1018.3,1009.9,1014.7,20.3,26.1,6.5,15.4,67,69.7,0.0,0.0,0.0,0.0,0.0,68,98,0,40.6,24.1,24.1,24.1,24.1,0
GL_MY,Huyện Mang Yang - Gia Lai,Gia Lai,Mang Yang,13.9833,108.25,2026-03-12 03:01:01,openmeteo,high,2026-03-12T10:00,,25.4,30.9,16.7,22.7,57,86,38,66.4,1016.0,1018.6,1010.5,1015.0,18.1,23.5,2.6,11.3,67,65.3,0.0,0.0,0.0,0.0,0.0,66,94,0,39.6,24.1,24.1,8.7,23.5,5
GL_PG,Huyện Phú Thiện - Gia Lai,Gia Lai,Phú Thiện,13.5333,108.3,2026-03-12 03:01:02,openmeteo,high,2026-03-12T10:00,,26.7,33.9,20.2,24.8,57,85,34,64.2,1015.5,1017.8,1009.0,1014.1,27.3,31.9,10.7,21.1,72,73.2,0.0,0.0,0.0,0.0,0.0,65,96,0,41.1,24.1,24.1,18.2,23.9,5
GL_DP,Huyện Đăk Pơ - Gia Lai,Gia Lai,Đăk Pơ,14.0,108.5,2026-03-12 03:01:00,openmeteo,high,2026-03-12T10:00,,22.8,28.5,17.5,20.9,67,89,45,73.4,1016.7,1019.1,1011.2,1015.7,19.5,27.2,6.8,15.5,56,59.4,0.0,0.0,0.0,0.0,0.0,79,97,8,58.6,24.1,24.1,6.7,23.3,0
GL_DC,Huyện Đăk Đoa - Gia Lai,Gia Lai,Đăk Đoa,14.1167,108.1167,2026-03-12 03:01:00,openmeteo,high,2026-03-12T10:00,,24.8,31.0,17.2,22.6,56,85,35,63.7,1016.0,1018.7,1010.1,1014.9,17.5,22.5,2.7,10.9,58,59.3,0.0,0.0,0.0,0.0,0.0,63,94,0,44.3,24.1,24.1,24.1,24.1,0
GL_DA,Huyện Đức Cơ - Gia Lai,Gia Lai,Đức Cơ,13.7833,107.6667,2026-03-12 03:01:01,openmeteo,high,2026-03-12T10:00,,28.2,34.6,17.4,26.2,53,91,29,57.5,1014.7,1017.2,1008.2,1012.9,10.5,19.6,1.5,8.4,84,107.2,0.0,0.0,0.0,0.0,0.0,49,93,0,33.9,24.1,24.1,24.1,24.1,5
GL_PC,Thành phố Pleiku - Gia Lai,Gia Lai,Pleiku,13.9833,108.0,2026-03-12 03:00:58,openmeteo,high,2026-03-12T10:00,,25.2,31.5,17.8,23.1,55,78,34,60.7,1015.6,1018.0,1009.7,1014.4,19.5,24.3,0.4,14.4,62,68.8,0.0,0.0,0.0,0.0,0.0,63,93,0,35.9,24.1,24.1,24.1,24.1,5
GL_AD,Thị xã An Khê - Gia Lai,Gia Lai,An Khê,14.0,108.6833,2026-03-12 03:00:59,openmeteo,high,2026-03-12T10:00,,23.8,30.0,17.5,21.7,64,94,43,72.5,1016.8,1019.2,1011.4,1015.9,18.3,27.8,4.2,13.6,54,50.3,0.0,0.0,0.0,0.0,0.0,85,97,6,58.6,24.1,24.1,0.9,23.7,0
GL_AY,Thị xã Ayun Pa - Gia Lai,Gia Lai,Ayun Pa,13.3833,108.4333,2026-03-12 03:00:59,openmeteo,high,2026-03-12T10:00,,26.5,34.2,20.9,25.3,62,91,35,66.0,1016.0,1018.1,1009.2,1014.4,19.2,23.5,3.8,13.4,67,70.2,0.0,0.0,0.0,0.0,0.0,88,97,0,53.2,24.1,24.1,24.1,24.1,5
HG_MK,Huyện Mèo Vạc - Hà Giang,Hà Giang,Mèo Vạc,23.1528,105.4069,2026-03-12 03:01:59,openmeteo,high,2026-03-12T10:00,,13.9,21.1,10.4,13.7,79,100,59,84.0,1022.3,1023.4,1010.2,1017.9,8.7,11.6,0.4,5.0,107,131.8,0.0,0.2,0.1,0.1,1.7,97,100,54,90.8,24.1,24.1,0.1,16.4,0
HG_DV,Huyện Đồng Văn - Hà Giang,Hà Giang,Đồng Văn,23.2547,105.25,2026-03-12 03:02:00,openmeteo,high,2026-03-12T10:00,,11.6,18.5,9.0,12.1,86,100,70,88.4,1022.5,1023.7,1011.4,1018.4,5.6,20.0,2.4,9.2,135,176.1,0.0,0.4,0.1,0.1,1.8,100,100,47,91.1,24.1,24.1,0.0,11.8,10
HG_HG,Thành phố Hà Giang - Hà Giang,Hà Giang,Hà Giang,22.8233,104.9836,2026-03-12 03:01:59,openmeteo,high,2026-03-12T10:00,,16.2,23.7,14.7,17.5,95,99,69,89.7,1022.4,1023.3,1010.7,1018.1,7.4,11.7,0.7,6.0,113,148.8,0.0,0.1,0.1,0.0,0.7,100,100,54,91.4,24.1,24.1,0.6,20.6,10
HNA_DT,Huyện Duy Tiên - Hà Nam,Hà Nam,Duy Tiên,20.6333,105.9667,2026-03-12 03:01:59,openmeteo,high,2026-03-12T10:00,,21.3,28.0,17.2,21.2,76,99,50,83.7,1021.3,1022.4,1010.2,1017.4,1.8,17.9,0.4,7.0,323,131.0,0.0,0.2,0.1,0.1,2.2,95,100,3,82.6,24.1,24.1,17.8,23.9,0
HNA_KB,Huyện Kim Bảng - Hà Nam,Hà Nam,Kim Bảng,20.5667,105.85,2026-03-12 03:02:00,openmeteo,high,2026-03-12T10:00,,20.9,28.0,17.2,21.1,75,99,49,81.7,1021.4,1022.4,1010.2,1017.3,1.6,17.1,0.4,6.1,333,138.0,0.0,0.1,0.1,0.0,1.1,94,100,25,81.5,24.1,24.1,19.0,23.9,0
HNA_PL,Thành phố Phủ Lý - Hà Nam,Hà Nam,Phủ Lý,20.5411,105.9139,2026-03-12 03:02:00,openmeteo,high,2026-03-12T10:00,,21.2,28.3,17.9,21.6,74,99,49,81.0,1021.4,1022.4,1010.3,1017.4,1.5,15.3,0.0,5.1,346,147.1,0.0,0.3,0.1,0.1,1.3,99,100,20,81.1,24.1,24.1,14.0,23.9,0
HN_BG,Huyện Ba Vì - Hà Nội,Hà Nội,Ba Vì,21.1992,105.4239,2026-03-12 03:00:27,openmeteo,high,2026-03-12T10:00,,20.3,28.3,18.3,21.6,85,98,52,81.5,1021.5,1022.5,1009.6,1017.0,0.7,18.8,0.0,8.2,360,118.8,0.0,0.0,0.0,0.0,0.0,96,100,41,85.2,24.1,24.1,12.4,24.0,0
HN_CM,Huyện Chương Mỹ - Hà Nội,Hà Nội,Chương Mỹ,20.8964,105.7039,2026-03-12 03:00:24,openmeteo,high,2026-03-12T10:00,,21.3,28.8,17.7,21.4,77,98,49,80.3,1021.5,1022.6,1009.7,1017.2,1.3,19.4,0.4,7.7,34,133.7,0.0,0.1,0.1,0.0,0.2,96,100,9,83.1,24.1,24.1,13.4,23.7,0
HN_GL,Huyện Gia Lâm - Hà Nội,Hà Nội,Gia Lâm,21.0408,105.95,2026-03-12 03:00:26,openmeteo,high,2026-03-12T10:00,,21.7,27.7,18.1,21.5,75,97,46,80.6,1021.3,1022.5,1010.3,1017.3,3.6,17.4,0.5,8.6,360,129.2,0.0,0.1,0.1,0.0,0.3,84,100,37,86.0,24.1,24.1,18.5,23.9,0
HN_HĐ,Huyện Hoài Đức - Hà Nội,Hà Nội,Hoài Đức,21.0392,105.7108,2026-03-12 03:00:23,openmeteo,high,2026-03-12T10:00,,21.8,28.5,18.0,21.6,74,98,47,81.0,1021.4,1022.5,1009.8,1017.2,1.1,18.1,0.4,8.6,360,134.8,0.0,0.0,0.0,0.0,0.0,97,100,40,83.7,24.1,24.1,13.4,23.7,0
HN_MT,Huyện Mê Linh - Hà Nội,Hà Nội,Mê Linh,21.1753,105.7219,2026-03-12 03:00:27,openmeteo,high,2026-03-12T10:00,,21.6,28.4,18.1,21.5,75,98,49,81.7,1021.4,1022.5,1009.8,1017.1,0.4,20.2,0.4,9.6,90,125.9,0.0,0.0,0.0,0.0,0.0,78,100,39,85.3,24.1,24.1,20.5,24.0,0
HN_MD,Huyện Mỹ Đức - Hà Nội,Hà Nội,Mỹ Đức,20.6472,105.7194,2026-03-12 03:00:25,openmeteo,high,2026-03-12T10:00,,19.6,27.6,16.5,20.2,79,98,50,80.8,1021.5,1022.7,1010.1,1017.5,1.8,15.8,0.0,5.9,53,149.3,0.0,0.2,0.1,0.0,0.8,97,100,44,85.1,24.1,24.1,15.6,23.8,0
HN_ML,Huyện Mỹ Đức - Hà Nội,Hà Nội,Mỹ Đức,20.6472,105.7194,2026-03-12 03:00:27,openmeteo,high,2026-03-12T10:00,,19.6,27.6,16.5,20.2,79,98,50,80.8,1021.5,1022.7,1010.1,1017.5,1.8,15.8,0.0,5.9,53,149.3,0.0,0.2,0.1,0.0,0.8,97,100,44,85.1,24.1,24.1,15.6,23.8,0
HN_PX,Huyện Phú Xuyên - Hà Nội,Hà Nội,Phú Xuyên,20.7392,105.9139,2026-03-12 03:00:24,openmeteo,high,2026-03-12T10:00,,21.5,28.0,17.7,21.2,75,99,50,83.1,1021.4,1022.5,1010.1,1017.3,1.6,18.8,0.5,8.1,333,140.7,0.0,0.1,0.1,0.0,0.4,83,100,40,83.7,24.1,24.1,17.8,23.9,0
HN_PH,Huyện Phú Xuyên - Hà Nội,Hà Nội,Phú Xuyên,20.7392,105.9139,2026-03-12 03:00:27,openmeteo,high,2026-03-12T10:00,,21.5,28.0,17.7,21.2,75,99,50,83.1,1021.4,1022.5,1010.1,1017.3,1.6,18.8,0.5,8.1,333,140.7,0.0,0.1,0.1,0.0,0.4,83,100,40,83.7,24.1,24.1,17.8,23.9,0
HN_PT,Huyện Phúc Thọ - Hà Nội,Hà Nội,Phúc Thọ,21.1031,105.5514,2026-03-12 03:00:27,openmeteo,high,2026-03-12T10:00,,19.9,28.4,17.7,21.3,86,98,52,81.2,1021.5,1022.6,1009.6,1017.1,1.5,19.8,0.8,8.1,45,119.9,0.0,0.1,0.1,0.0,0.4,94,100,35,86.5,24.1,24.1,12.4,23.9,10
HN_QO,Huyện Quốc Oai - Hà Nội,Hà Nội,Quốc Oai,20.9956,105.6119,2026-03-12 03:00:23,openmeteo,high,2026-03-12T10:00,,20.5,28.3,17.1,20.9,80,100,51,81.2,1021.5,1022.7,1009.7,1017.2,2.5,19.4,1.0,7.9,45,126.6,0.0,0.1,0.1,0.0,0.3,95,100,34,85.8,24.1,24.1,12.4,23.9,0
HN_SL,Huyện Sóc Sơn - Hà Nội,Hà Nội,Sóc Sơn,21.2578,105.8489,2026-03-12 03:00:25,openmeteo,high,2026-03-12T10:00,,21.8,27.8,17.7,21.5,75,96,46,80.2,1021.4,1022.5,1010.1,1017.2,1.8,17.3,0.5,8.5,360,125.2,0.0,0.0,0.0,0.0,0.0,83,100,41,88.1,24.1,24.1,20.5,24.0,0
HN_TO,Huyện Thanh Oai - Hà Nội,Hà Nội,Thanh Oai,20.8556,105.7722,2026-03-12 03:00:24,openmeteo,high,2026-03-12T10:00,,21.3,28.8,17.7,21.4,77,98,49,80.3,1021.5,1022.6,1009.7,1017.2,1.3,19.4,0.4,7.7,34,133.7,0.0,0.1,0.1,0.0,0.2,96,100,9,83.1,24.1,24.1,15.6,23.8,0
HN_TT2,Huyện Thường Tín - Hà Nội,Hà Nội,Thường Tín,20.87,105.8583,2026-03-12 03:00:25,openmeteo,high,2026-03-12T10:00,,22.0,28.4,17.9,21.5,72,99,46,81.7,1021.3,1022.5,1010.0,1017.2,1.8,18.6,0.4,8.5,360,136.9,0.0,0.1,0.1,0.0,0.3,92,100,44,84.8,24.1,24.1,15.6,23.8,0
HN_TT,Huyện Thạch Thất - Hà Nội,Hà Nội,Thạch Thất,21.0278,105.5564,2026-03-12 03:00:24,openmeteo,high,2026-03-12T10:00,,21.1,30.1,17.2,22.0,85,99,49,79.6,1021.5,1022.6,1009.6,1017.2,3.1,17.4,0.7,6.6,36,123.9,0.0,0.0,0.0,0.0,0.0,98,100,0,83.0,24.1,24.1,12.4,23.9,0
HN_DP,Huyện Đan Phượng - Hà Nội,Hà Nội,Đan Phượng,21.1394,105.6736,2026-03-12 03:00:23,openmeteo,high,2026-03-12T10:00,,21.6,28.4,18.1,21.6,75,98,49,81.7,1021.4,1022.5,1009.8,1017.1,0.4,20.2,0.4,9.6,90,125.9,0.0,0.0,0.0,0.0,0.0,78,100,39,85.3,24.1,24.1,20.5,24.0,0
HN_DH,Huyện Đông Anh - Hà Nội,Hà Nội,Đông Anh,21.1467,105.8464,2026-03-12 03:00:26,openmeteo,high,2026-03-12T10:00,,21.6,27.9,18.0,21.5,76,96,46,80.9,1021.4,1022.5,1010.1,1017.2,1.8,17.6,0.8,9.1,349,128.2,0.0,0.1,0.1,0.0,0.3,85,100,40,86.8,24.1,24.1,20.5,24.0,0
HN_UH,Huyện Ứng Hòa - Hà Nội,Hà Nội,Ứng Hòa,20.7292,105.8236,2026-03-12 03:00:25,openmeteo,high,2026-03-12T10:00,,21.5,28.0,17.7,21.2,75,99,50,83.1,1021.4,1022.5,1010.1,1017.3,1.6,18.8,0.5,8.1,333,140.7,0.0,0.1,0.1,0.0,0.4,83,100,40,83.7,24.1,24.1,15.6,23.8,0
HN_BD,Quận Ba Đình - Hà Nội,Hà Nội,Ba Đình,21.0338,105.8142,2026-03-12 03:00:18,openmeteo,high,2026-03-12T10:00,,21.8,28.5,17.9,21.5,74,98,47,81.0,1021.4,1022.5,1009.8,1017.2,1.1,18.1,0.4,8.6,360,134.8,0.0,0.0,0.0,0.0,0.0,97,100,40,83.7,24.1,24.1,13.4,23.7,0
HN_BTL,Quận Bắc Từ Liêm - Hà Nội,Hà Nội,Bắc Từ Liêm,21.0772,105.773,2026-03-12 03:00:22,openmeteo,high,2026-03-12T10:00,,21.5,28.3,18.0,21.5,75,98,49,81.7,1021.4,1022.5,1009.8,1017.1,0.4,20.2,0.4,9.6,90,125.9,0.0,0.0,0.0,0.0,0.0,78,100,39,85.3,24.1,24.1,13.4,23.7,0
HN_CG,Quận Cầu Giấy - Hà Nội,Hà Nội,Cầu Giấy,21.0301,105.8022,2026-03-12 03:00:19,openmeteo,high,2026-03-12T10:00,,21.8,28.5,18.0,21.6,74,98,47,81.0,1021.4,1022.5,1009.8,1017.2,1.1,18.1,0.4,8.6,360,134.8,0.0,0.0,0.0,0.0,0.0,97,100,40,83.7,24.1,24.1,13.4,23.7,0
HN_HBT,Quận Hai Bà Trưng - Hà Nội,Hà Nội,Hai Bà Trưng,21.0091,105.8606,2026-03-12 03:00:20,openmeteo,high,2026-03-12T10:00,,21.8,28.5,17.9,21.5,74,98,47,81.0,1021.4,1022.5,1009.8,1017.2,1.1,18.1,0.4,8.6,360,134.8,0.0,0.0,0.0,0.0,0.0,97,100,40,83.7,24.1,24.1,13.4,23.7,0
HN_HK,Quận Hoàn Kiếm - Hà Nội,Hà Nội,Hoàn Kiếm,21.0285,105.8542,2026-03-12 03:00:19,openmeteo,high,2026-03-12T10:00,,21.7,28.4,17.9,21.5,74,98,47,81.0,1021.4,1022.5,1009.8,1017.2,1.1,18.1,0.4,8.6,360,134.8,0.0,0.0,0.0,0.0,0.0,97,100,40,83.7,24.1,24.1,13.4,23.7,0
HN_HM,Quận Hoàng Mai - Hà Nội,Hà Nội,Hoàng Mai,20.9837,105.8636,2026-03-12 03:00:21,openmeteo,high,2026-03-12T10:00,,21.8,28.5,17.9,21.5,74,98,47,81.0,1021.4,1022.5,1009.8,1017.2,1.1,18.1,0.4,8.6,360,134.8,0.0,0.0,0.0,0.0,0.0,97,100,40,83.7,24.1,24.1,13.4,23.7,0
HN_HD,Quận Hà Đông - Hà Nội,Hà Nội,Hà Đông,20.9714,105.7788,2026-03-12 03:00:22,openmeteo,high,2026-03-12T10:00,,21.8,28.5,17.9,21.5,74,98,47,81.0,1021.4,1022.5,1009.8,1017.2,1.1,18.1,0.4,8.6,360,134.8,0.0,0.0,0.0,0.0,0.0,97,100,40,83.7,24.1,24.1,13.4,23.7,0
HN_LB,Quận Long Biên - Hà Nội,Hà Nội,Long Biên,21.054,105.8959,2026-03-12 03:00:21,openmeteo,high,2026-03-12T10:00,,21.8,28.5,18.0,21.6,74,98,47,81.0,1021.4,1022.5,1009.8,1017.2,1.1,18.1,0.4,8.6,360,134.8,0.0,0.0,0.0,0.0,0.0,97,100,40,83.7,24.1,24.1,18.5,23.9,0
HN_NTL,Quận Nam Từ Liêm - Hà Nội,Hà Nội,Nam Từ Liêm,21.0113,105.7547,2026-03-12 03:00:22,openmeteo,high,2026-03-12T10:00,,21.8,28.5,18.0,21.6,74,98,47,81.0,1021.4,1022.5,1009.8,1017.2,1.1,18.1,0.4,8.6,360,134.8,0.0,0.0,0.0,0.0,0.0,97,100,40,83.7,24.1,24.1,13.4,23.7,0
HN_TX,Quận Thanh Xuân - Hà Nội,Hà Nội,Thanh Xuân,21.001,105.8093,2026-03-12 03:00:20,openmeteo,high,2026-03-12T10:00,,21.8,28.5,17.9,21.5,74,98,47,81.0,1021.4,1022.5,1009.8,1017.2,1.1,18.1,0.4,8.6,360,134.8,0.0,0.0,0.0,0.0,0.0,97,100,40,83.7,24.1,24.1,13.4,23.7,0
HN_DD,Quận Đống Đa - Hà Nội,Hà Nội,Đống Đa,21.019,105.8315,2026-03-12 03:00:20,openmeteo,high,2026-03-12T10:00,,21.8,28.5,17.9,21.5,74,98,47,81.0,1021.4,1022.5,1009.8,1017.2,1.1,18.1,0.4,8.6,360,134.8,0.0,0.0,0.0,0.0,0.0,97,100,40,83.7,24.1,24.1,13.4,23.7,0
HN_ST,Thị xã Sơn Tây - Hà Nội,Hà Nội,Sơn Tây,21.1376,105.507,2026-03-12 03:00:23,openmeteo,high,2026-03-12T10:00,,19.9,28.4,17.7,21.3,86,98,52,81.2,1021.5,1022.6,1009.6,1017.1,1.5,19.8,0.8,8.1,45,119.9,0.0,0.1,0.1,0.0,0.4,94,100,35,86.5,24.1,24.1,12.4,24.0,10
HT_HT,Thành phố Hà Tĩnh - Hà Tĩnh,Hà Tĩnh,Hà Tĩnh,18.3333,105.9,2026-03-12 03:01:38,openmeteo,high,2026-03-12T10:00,,21.6,29.6,18.0,21.2,81,100,60,87.3,1020.5,1021.5,1010.5,1017.0,9.4,12.2,0.4,5.1,342,357.9,0.0,0.4,0.1,0.1,2.7,92,100,11,76.0,21.8,24.1,15.0,23.3,0
HT_HK,Thị xã Hồng Lĩnh - Hà Tĩnh,Hà Tĩnh,Hồng Lĩnh,18.5333,105.7167,2026-03-12 03:01:38,openmeteo,high,2026-03-12T10:00,,21.3,29.1,17.5,21.1,81,100,61,85.6,1020.6,1021.6,1010.3,1017.0,8.8,13.0,0.4,4.7,348,13.5,0.0,0.3,0.1,0.1,1.2,92,100,0,73.9,24.1,24.1,15.7,23.8,0
HT_KL,Thị xã Kỳ Anh - Hà Tĩnh,Hà Tĩnh,Kỳ Anh,18.0833,106.3,2026-03-12 03:01:39,openmeteo,high,2026-03-12T10:00,,21.2,28.7,18.6,21.4,82,99,64,86.3,1020.0,1021.4,1010.6,1017.0,10.6,13.9,0.4,5.2,10,337.6,0.0,0.4,0.1,0.3,7.2,91,100,0,78.1,23.6,24.1,9.4,22.5,0
HB_KB,Huyện Kim Bôi - Hòa Bình,Hòa Bình,Kim Bôi,20.6667,105.5333,2026-03-12 03:01:48,openmeteo,high,2026-03-12T10:00,,19.7,27.7,16.0,20.1,84,99,52,83.1,1021.6,1022.7,1010.3,1017.7,2.9,16.1,0.7,6.1,60,146.6,0.0,0.0,0.0,0.0,0.0,100,100,52,87.0,24.1,24.1,19.1,23.9,0
HB_ML,Huyện Mai Châu - Hòa Bình,Hòa Bình,Mai Châu,20.6667,105.0833,2026-03-12 03:01:48,openmeteo,high,2026-03-12T10:00,,22.0,31.7,16.1,22.8,83,100,45,81.2,1021.6,1022.8,1009.9,1017.6,3.3,11.7,0.8,4.7,41,125.9,0.0,0.2,0.1,0.0,1.0,97,100,34,82.3,24.1,24.1,19.9,24.0,0
HB_HB,Thành phố Hòa Bình - Hòa Bình,Hòa Bình,Hòa Bình,20.8133,105.3383,2026-03-12 03:01:47,openmeteo,high,2026-03-12T10:00,,19.0,28.0,15.9,20.3,87,99,54,84.1,1021.7,1022.8,1010.2,1017.5,4.3,13.2,0.8,5.2,42,141.3,0.0,0.2,0.1,0.0,1.1,100,100,47,89.1,24.1,24.1,16.2,23.9,10
HY_ML,Huyện Mỹ Hào - Hưng Yên,Hưng Yên,Mỹ Hào,20.9333,106.0667,2026-03-12 03:01:55,openmeteo,high,2026-03-12T10:00,,22.0,27.5,17.1,21.1,72,98,46,82.3,1021.3,1022.4,1010.5,1017.4,3.2,17.3,0.7,7.9,360,126.9,0.0,0.3,0.2,0.1,2.1,91,100,28,84.0,24.1,24.1,18.5,23.9,0
HY_VD,Huyện Văn Lâm - Hưng Yên,Hưng Yên,Văn Lâm,20.9833,106.0333,2026-03-12 03:01:56,openmeteo,high,2026-03-12T10:00,,21.7,27.7,18.1,21.5,75,97,46,80.6,1021.3,1022.5,1010.3,1017.3,3.6,17.4,0.5,8.6,360,129.2,0.0,0.1,0.1,0.0,0.3,84,100,37,86.0,24.1,24.1,18.5,23.9,0
HY_HY,Thành phố Hưng Yên - Hưng Yên,Hưng Yên,Hưng Yên,20.6461,106.0511,2026-03-12 03:01:55,openmeteo,high,2026-03-12T10:00,,21.2,27.9,17.1,21.1,76,99,50,83.7,1021.3,1022.4,1010.2,1017.4,1.8,17.9,0.4,7.0,323,131.0,0.0,0.2,0.1,0.1,2.2,95,100,3,82.6,24.1,24.1,17.8,23.9,0
HD_CM,Huyện Cẩm Giàng - Hải Dương,Hải Dương,Cẩm Giàng,20.95,106.2167,2026-03-12 03:01:55,openmeteo,high,2026-03-12T10:00,,22.3,27.4,17.4,21.3,76,97,46,81.7,1021.2,1022.4,1010.6,1017.4,4.3,16.5,1.1,7.7,355,126.7,0.0,0.1,0.1,0.0,0.6,97,100,36,84.0,24.1,24.1,14.8,24.0,0
HD_HD,Thành phố Hải Dương - Hải Dương,Hải Dương,Hải Dương,20.9397,106.3308,2026-03-12 03:01:54,openmeteo,high,2026-03-12T10:00,,22.3,26.8,17.2,21.1,76,97,45,81.6,1021.2,1022.4,1010.9,1017.4,3.6,18.3,0.5,8.0,354,121.5,0.0,0.3,0.1,0.1,1.9,88,100,18,80.5,24.1,24.1,14.8,24.0,0
HD_CL,Thị xã Kinh Môn - Hải Dương,Hải Dương,Kinh Môn,21.0167,106.5,2026-03-12 03:01:55,openmeteo,high,2026-03-12T10:00,,22.5,25.9,16.7,21.0,73,95,47,80.1,1021.1,1022.4,1011.2,1017.5,2.2,16.6,0.4,7.3,360,108.4,0.0,0.2,0.1,0.1,1.3,79,100,4,77.1,24.1,24.1,22.3,24.1,0
HP_AC,Huyện An Dương - Hải Phòng,Hải Phòng,An Dương,20.8667,106.6167,2026-03-12 03:00:36,openmeteo,high,2026-03-12T10:00,,22.4,25.2,16.3,20.9,70,96,54,81.0,1021.1,1022.4,1011.5,1017.5,2.1,19.6,0.5,8.2,31,100.2,0.0,0.2,0.1,0.1,1.5,100,100,0,74.0,24.1,24.1,15.4,24.0,0
HP_AL,Huyện An Lão - Hải Phòng,Hải Phòng,An Lão,20.8167,106.55,2026-03-12 03:00:36,openmeteo,high,2026-03-12T10:00,,22.1,25.9,16.0,20.7,75,98,51,82.9,1021.2,1022.3,1011.1,1017.5,3.1,20.1,0.4,8.9,339,106.4,0.0,0.4,0.1,0.1,2.1,100,100,0,76.0,24.1,24.1,15.4,24.0,0
HP_BH,Huyện Bạch Long Vĩ - Hải Phòng,Hải Phòng,Bạch Long Vĩ,20.1333,107.7333,2026-03-12 03:00:37,openmeteo,high,2026-03-12T10:00,,20.5,23.2,20.0,21.6,81,93,73,83.7,1020.4,1021.6,1012.3,1017.3,28.8,36.6,0.0,17.0,44,70.0,0.0,0.3,0.1,0.0,0.9,100,100,0,54.4,24.1,24.1,15.2,23.9,0
HP_CH,Huyện Cát Hải - Hải Phòng,Hải Phòng,Cát Hải,20.7264,107.0489,2026-03-12 03:00:37,openmeteo,high,2026-03-12T10:00,,21.6,24.4,17.3,20.6,67,93,56,79.7,1021.0,1022.4,1011.8,1017.6,5.4,18.8,1.1,8.3,53,88.0,0.0,0.1,0.1,0.0,0.6,100,100,0,71.4,24.1,24.1,11.3,23.8,0
HP_KL,Huyện Kiến Thụy - Hải Phòng,Hải Phòng,Kiến Thụy,20.75,106.6667,2026-03-12 03:00:35,openmeteo,high,2026-03-12T10:00,,22.2,25.3,17.0,21.0,71,96,55,81.2,1021.1,1022.3,1011.5,1017.5,3.3,19.7,1.1,8.3,41,96.8,0.0,0.3,0.1,0.1,1.5,100,100,0,75.1,24.1,24.1,14.6,23.9,0
HP_TL,Huyện Thủy Nguyên - Hải Phòng,Hải Phòng,Thủy Nguyên,20.9583,106.6667,2026-03-12 03:00:35,openmeteo,high,2026-03-12T10:00,,22.7,26.1,16.9,21.1,73,95,47,80.1,1021.1,1022.4,1011.2,1017.5,2.2,16.6,0.4,7.3,360,108.4,0.0,0.2,0.1,0.1,1.3,79,100,4,77.1,24.1,24.1,22.8,24.1,0
HP_TH,Huyện Tiên Lãng - Hải Phòng,Hải Phòng,Tiên Lãng,20.7333,106.55,2026-03-12 03:00:36,openmeteo,high,2026-03-12T10:00,,22.1,25.9,15.9,20.7,74,98,52,83.4,1021.2,1022.3,1011.1,1017.5,3.3,20.7,1.1,9.1,354,105.3,0.0,0.4,0.1,0.1,2.7,100,100,0,77.0,24.1,24.1,15.4,24.0,0
HP_VB,Huyện Vĩnh Bảo - Hải Phòng,Hải Phòng,Vĩnh Bảo,20.7,106.4667,2026-03-12 03:00:37,openmeteo,high,2026-03-12T10:00,,22.1,25.9,15.9,20.7,74,98,52,83.4,1021.2,1022.3,1011.1,1017.5,3.3,20.7,1.1,9.1,354,105.3,0.0,0.4,0.1,0.1,2.7,100,100,0,77.0,24.1,24.1,15.4,24.0,0
HP_DS,Quận Dương Kinh - Hải Phòng,Hải Phòng,Dương Kinh,20.8025,106.6669,2026-03-12 03:00:34,openmeteo,high,2026-03-12T10:00,,22.2,25.3,17.0,21.0,71,96,55,81.2,1021.1,1022.3,1011.5,1017.5,3.3,19.7,1.1,8.3,41,96.8,0.0,0.3,0.1,0.1,1.5,100,100,0,75.1,24.1,24.1,14.6,23.9,0
HP_HA,Quận Hải An - Hải Phòng,Hải Phòng,Hải An,20.8378,106.7377,2026-03-12 03:00:35,openmeteo,high,2026-03-12T10:00,,22.5,25.3,16.3,20.9,69,94,53,80.2,1021.0,1022.4,1011.6,1017.6,2.3,19.0,0.5,7.7,51,96.9,0.0,0.2,0.1,0.0,0.9,100,100,0,73.6,24.1,24.1,14.6,23.9,0
HP_KS,Quận Kiến An - Hải Phòng,Hải Phòng,Kiến An,20.8075,106.6264,2026-03-12 03:00:34,openmeteo,high,2026-03-12T10:00,,22.2,25.3,17.0,21.0,71,96,55,81.2,1021.1,1022.3,1011.5,1017.5,3.3,19.7,1.1,8.3,41,96.8,0.0,0.3,0.1,0.1,1.5,100,100,0,75.1,24.1,24.1,14.6,23.9,0
HP_LC,Quận Lê Chân - Hải Phòng,Hải Phòng,Lê Chân,20.8516,106.6822,2026-03-12 03:00:33,openmeteo,high,2026-03-12T10:00,,22.4,25.2,16.3,20.9,70,96,54,81.0,1021.1,1022.4,1011.5,1017.5,2.1,19.6,0.5,8.2,31,100.2,0.0,0.2,0.1,0.1,1.5,100,100,0,74.0,24.1,24.1,14.6,23.9,0
HP_NQ,Quận Ngô Quyền - Hải Phòng,Hải Phòng,Ngô Quyền,20.858,106.7053,2026-03-12 03:00:34,openmeteo,high,2026-03-12T10:00,,22.5,25.3,16.3,20.9,69,94,53,80.2,1021.0,1022.4,1011.6,1017.6,2.3,19.0,0.5,7.7,51,96.9,0.0,0.2,0.1,0.0,0.9,100,100,0,73.6,24.1,24.1,14.6,23.9,0
HP_DK,Quận Đồ Sơn - Hải Phòng,Hải Phòng,Đồ Sơn,20.7278,106.7733,2026-03-12 03:00:35,openmeteo,high,2026-03-12T10:00,,22.2,25.0,17.3,21.1,69,95,57,81.2,1021.0,1022.3,1011.8,1017.6,7.1,19.9,2.4,9.1,49,91.5,0.0,0.2,0.1,0.0,0.9,100,100,0,72.6,24.1,24.1,14.6,23.9,0
HP_CB,Đảo Cát Bà - Hải Phòng,Hải Phòng,Cát Hải,20.7264,107.0489,2026-03-12 03:02:03,openmeteo,high,2026-03-12T10:00,,21.6,24.4,17.3,20.6,67,93,56,79.7,1021.0,1022.4,1011.8,1017.6,5.4,18.8,1.1,8.3,53,88.0,0.0,0.1,0.1,0.0,0.6,100,100,0,71.4,24.1,24.1,11.3,23.8,0
HG_CL,Huyện Châu Thành - Hậu Giang,Hậu Giang,Châu Thành,9.9333,105.6833,2026-03-12 03:01:31,openmeteo,high,2026-03-12T10:00,,28.8,33.6,23.0,27.2,68,94,43,71.4,1012.9,1014.9,1007.9,1011.5,16.0,22.0,4.7,11.5,81,99.8,0.0,1.1,0.1,0.1,2.7,74,95,0,53.7,24.1,24.1,15.6,24.0,5
HG_CT,Huyện Châu Thành A - Hậu Giang,Hậu Giang,Châu Thành A,9.9333,105.6333,2026-03-12 03:01:31,openmeteo,high,2026-03-12T10:00,,28.8,33.6,23.0,27.2,68,94,43,71.4,1012.9,1014.9,1007.9,1011.5,16.0,22.0,4.7,11.5,81,99.8,0.0,1.1,0.1,0.1,2.7,74,95,0,53.7,24.1,24.1,15.6,24.0,5
HG_LT,Huyện Long Mỹ - Hậu Giang,Hậu Giang,Long Mỹ,9.6833,105.5667,2026-03-12 03:01:32,openmeteo,high,2026-03-12T10:00,,29.1,32.8,23.1,27.4,64,91,45,69.7,1012.9,1014.8,1007.8,1011.5,19.2,25.7,5.6,14.1,82,96.8,0.0,0.0,0.0,0.0,0.0,81,97,0,52.8,24.1,24.1,19.8,24.1,5
HG_PB,Huyện Phụng Hiệp - Hậu Giang,Hậu Giang,Phụng Hiệp,9.7833,105.7167,2026-03-12 03:01:31,openmeteo,high,2026-03-12T10:00,,29.0,33.0,23.1,27.4,65,93,44,69.9,1012.9,1015.0,1007.8,1011.5,17.5,24.5,5.4,13.2,81,97.4,0.0,0.1,0.1,0.0,0.1,82,89,0,53.2,24.1,24.1,19.5,24.1,5
HG_VT2,Huyện Vị Thủy - Hậu Giang,Hậu Giang,Vị Thủy,9.7667,105.4667,2026-03-12 03:01:31,openmeteo,high,2026-03-12T10:00,,29.1,33.5,23.0,27.3,66,93,42,70.6,1012.9,1015.0,1007.8,1011.5,17.4,23.4,4.8,12.4,83,98.2,0.0,0.3,0.2,0.0,0.8,79,94,0,53.1,24.1,24.1,19.8,24.1,5
HG_VT,Thành phố Vị Thanh - Hậu Giang,Hậu Giang,Vị Thanh,9.7833,105.4667,2026-03-12 03:01:30,openmeteo,high,2026-03-12T10:00,,29.1,33.5,23.0,27.3,66,93,42,70.6,1012.9,1015.0,1007.8,1011.5,17.4,23.4,4.8,12.4,83,98.2,0.0,0.3,0.2,0.0,0.8,79,94,0,53.1,24.1,24.1,19.8,24.1,5
HG_NM,Thị xã Ngã Bảy - Hậu Giang,Hậu Giang,Ngã Bảy,9.8167,105.8167,2026-03-12 03:01:30,openmeteo,high,2026-03-12T10:00,,29.0,33.3,23.0,27.3,66,92,43,69.9,1012.9,1014.9,1007.9,1011.5,16.9,23.4,4.7,12.8,78,98.5,0.0,0.3,0.1,0.0,0.6,77,87,0,54.4,24.1,24.1,19.5,24.1,5
KH_TS,Huyện Trường Sa - Khánh Hòa,Khánh Hòa,Trường Sa,8.65,111.9167,2026-03-12 03:01:43,openmeteo,high,2026-03-12T10:00,,26.8,27.7,26.0,27.0,80,84,67,75.9,1012.5,1014.6,1008.7,1011.6,30.8,38.3,21.0,30.1,37,53.4,0.0,0.8,0.1,0.4,9.5,64,100,10,54.7,24.1,24.1,8.2,23.6,5
KH_CT,Thành phố Cam Ranh - Khánh Hòa,Khánh Hòa,Cam Ranh,11.9,109.1333,2026-03-12 03:01:42,openmeteo,high,2026-03-12T10:00,,25.3,29.1,19.5,23.4,63,94,48,70.5,1015.7,1017.8,1011.4,1014.7,21.1,28.7,3.6,13.1,33,28.7,0.0,0.0,0.0,0.0,0.0,86,94,18,64.9,24.1,24.1,15.4,23.7,5
KH_NT,Thành phố Nha Trang - Khánh Hòa,Khánh Hòa,Nha Trang,12.25,109.1833,2026-03-12 03:01:43,openmeteo,high,2026-03-12T10:00,,26.7,31.8,20.8,24.8,67,93,47,74.1,1015.9,1017.9,1011.2,1014.6,10.5,16.4,1.1,6.6,22,345.2,0.0,0.1,0.1,0.0,0.1,77,100,4,58.0,24.1,24.1,6.6,23.0,5
KH_NH,Thị xã Ninh Hòa - Khánh Hòa,Khánh Hòa,Ninh Hòa,12.5,109.15,2026-03-12 03:01:43,openmeteo,high,2026-03-12T10:00,,25.6,31.0,19.9,24.3,74,96,44,79.0,1016.0,1018.0,1011.2,1014.6,6.6,17.8,0.4,5.8,81,99.7,0.0,1.4,0.1,0.3,7.7,93,100,8,69.2,21.3,24.1,8.0,23.1,5
KH_HS,Đảo Hoàng Sa - Khánh Hòa,Khánh Hòa,Hoàng Sa,16.5322,111.6156,2026-03-12 03:02:04,openmeteo,high,2026-03-12T11:00,,24.1,26.4,23.4,24.9,73,84,61,71.2,1017.1,1018.9,1012.3,1015.6,37.4,45.4,3.7,27.3,46,63.9,0.0,0.5,0.1,0.3,7.5,78,96,8,54.9,24.1,24.1,8.4,23.4,0
KH_TS,Đảo Trường Sa - Khánh Hòa,Khánh Hòa,Trường Sa,8.65,111.9167,2026-03-12 03:02:05,openmeteo,high,2026-03-12T10:00,,26.8,27.7,26.0,27.0,80,84,67,75.9,1012.5,1014.6,1008.7,1011.6,30.8,38.3,21.0,30.1,37,53.4,0.0,0.8,0.1,0.4,9.5,64,100,10,54.7,24.1,24.1,8.2,23.6,5
KG_AT,Huyện An Biên - Kiên Giang,Kiên Giang,An Biên,9.8167,105.0667,2026-03-12 03:01:15,openmeteo,high,2026-03-12T10:00,,27.5,32.1,25.0,27.4,76,87,49,75.8,1013.0,1014.9,1008.2,1011.5,16.3,24.2,0.5,14.4,84,95.7,0.0,1.3,0.1,0.3,6.8,49,84,0,49.0,24.1,24.1,5.2,24.0,5
KG_AM,Huyện An Minh - Kiên Giang,Kiên Giang,An Minh,9.6667,104.95,2026-03-12 03:01:16,openmeteo,high,2026-03-12T10:00,,28.3,32.3,24.3,27.2,70,90,47,76.4,1012.8,1014.9,1008.1,1011.5,20.5,27.9,1.6,14.4,89,98.3,0.0,2.7,0.1,0.9,22.4,42,97,0,54.6,24.1,24.1,5.2,24.0,5
KG_CL,Huyện Châu Thành - Kiên Giang,Kiên Giang,Châu Thành,9.9333,105.1667,2026-03-12 03:01:16,openmeteo,high,2026-03-12T10:00,,27.5,32.2,25.0,27.4,76,87,49,75.8,1013.0,1014.9,1008.2,1011.5,16.3,24.2,0.5,14.4,84,95.7,0.0,1.3,0.1,0.3,6.8,49,84,0,49.0,24.1,24.1,12.5,24.0,5
KG_GT,Huyện Giang Thành - Kiên Giang,Kiên Giang,Giang Thành,10.4833,104.6333,2026-03-12 03:01:16,openmeteo,high,2026-03-12T10:00,,28.8,34.5,23.5,28.0,70,91,39,70.8,1013.3,1015.2,1007.8,1011.5,5.2,12.8,0.0,6.5,102,108.8,0.0,0.4,0.1,0.0,1.0,58,94,22,65.0,24.1,24.1,7.9,23.9,5
KG_GD,Huyện Gò Quao - Kiên Giang,Kiên Giang,Gò Quao,9.7333,105.2667,2026-03-12 03:01:17,openmeteo,high,2026-03-12T10:00,,29.1,34.0,23.1,27.4,66,91,40,71.5,1012.9,1014.9,1007.9,1011.4,16.6,22.0,0.8,11.6,88,99.9,0.0,2.0,0.1,0.4,8.7,55,90,0,55.0,24.1,24.1,24.1,24.1,5
KG_HG,Huyện Hòn Đất - Kiên Giang,Kiên Giang,Hòn Đất,10.2333,104.9333,2026-03-12 03:01:17,openmeteo,high,2026-03-12T10:00,,27.4,31.6,25.1,27.7,78,85,55,74.3,1013.1,1015.0,1008.2,1011.5,10.5,19.1,2.9,10.6,96,123.4,0.0,2.6,0.1,0.6,15.1,58,90,10,57.9,24.1,24.1,24.0,24.1,5
KG_KT,Huyện Kiên Hải - Kiên Giang,Kiên Giang,Kiên Hải,9.71,104.33,2026-03-12 03:01:17,openmeteo,high,2026-03-12T10:00,,27.0,29.3,26.5,27.6,77,81,67,75.3,1013.1,1015.0,1008.3,1011.6,17.3,26.7,1.5,16.4,94,102.4,0.0,0.8,0.1,0.3,6.3,45,94,0,40.5,24.1,24.1,14.3,24.0,5
KG_LS,Huyện Kiên Lương - Kiên Giang,Kiên Giang,Kiên Lương,10.25,104.6333,2026-03-12 03:01:18,openmeteo,high,2026-03-12T10:00,,27.2,30.0,26.1,27.9,78,82,64,74.4,1013.2,1015.1,1008.3,1011.6,9.0,20.1,0.8,11.6,95,131.6,0.0,1.8,0.1,0.6,15.0,53,88,0,48.8,24.1,24.1,5.5,23.6,5
KG_PQ,Huyện Phú Quốc - Kiên Giang,Kiên Giang,Phú Quốc,10.227,103.9679,2026-03-12 03:01:15,openmeteo,high,2026-03-12T10:00,,27.8,30.7,26.1,28.1,75,87,60,74.9,1013.3,1015.0,1008.2,1011.6,11.2,19.4,0.8,9.6,96,116.8,0.1,2.8,0.1,1.8,43.6,42,95,0,51.3,24.1,24.1,4.0,22.5,5
KG_TG,Huyện Tân Hiệp - Kiên Giang,Kiên Giang,Tân Hiệp,10.1,105.2833,2026-03-12 03:01:18,openmeteo,high,2026-03-12T10:00,,29.0,34.5,22.9,27.4,69,95,40,72.1,1013.0,1015.1,1007.9,1011.5,12.6,18.4,2.6,9.3,87,102.4,0.0,1.4,0.1,0.2,3.8,57,84,0,57.3,24.1,24.1,12.5,24.0,5
KG_UM,Huyện U Minh Thượng - Kiên Giang,Kiên Giang,U Minh Thượng,9.6,105.1,2026-03-12 03:01:18,openmeteo,high,2026-03-12T10:00,,29.1,33.5,22.6,27.1,66,93,42,73.3,1012.9,1014.8,1007.9,1011.4,17.3,22.0,1.3,11.0,89,100.7,0.0,2.6,0.1,0.3,8.0,49,96,0,56.9,24.1,24.1,18.0,24.0,5
KG_VT,Huyện Vĩnh Thuận - Kiên Giang,Kiên Giang,Vĩnh Thuận,9.5333,105.25,2026-03-12 03:01:18,openmeteo,high,2026-03-12T10:00,,29.4,33.4,22.7,27.2,63,93,44,72.0,1012.8,1014.8,1007.8,1011.4,18.4,23.8,2.4,12.1,88,99.9,0.0,0.4,0.1,0.1,1.6,51,97,0,53.9,24.1,24.1,16.8,24.0,5
KG_HN,Thành phố Hà Tiên - Kiên Giang,Kiên Giang,Hà Tiên,10.3833,104.4833,2026-03-12 03:01:14,openmeteo,high,2026-03-12T10:00,,26.9,29.8,26.0,27.9,78,84,62,74.3,1013.3,1015.1,1008.3,1011.6,6.2,14.4,1.9,9.4,100,139.3,0.0,2.1,0.1,0.9,22.1,50,90,4,52.0,24.1,24.1,6.3,23.5,5
KG_RG,Thành phố Rạch Giá - Kiên Giang,Kiên Giang,Rạch Giá,10.0317,105.0809,2026-03-12 03:01:14,openmeteo,high,2026-03-12T10:00,,28.0,33.2,24.5,27.5,75,89,44,74.0,1013.0,1015.0,1008.1,1011.5,13.3,20.5,1.0,11.3,87,103.6,0.0,1.7,0.1,0.7,16.1,48,82,0,55.3,24.1,24.1,12.5,24.0,5
KG_ND,Đảo Nam Du - Kiên Giang,Kiên Giang,Kiên Hải,9.71,104.33,2026-03-12 03:02:05,openmeteo,high,2026-03-12T10:00,,27.0,29.3,26.5,27.6,77,81,67,75.3,1013.1,1015.0,1008.3,1011.6,17.3,26.7,1.5,16.4,94,102.4,0.0,0.8,0.1,0.3,6.3,45,94,0,40.5,24.1,24.1,14.3,24.0,5
KG_PQ2,Đảo Phú Quốc - Kiên Giang,Kiên Giang,Phú Quốc,10.227,103.9679,2026-03-12 03:02:05,openmeteo,high,2026-03-12T10:00,,27.8,30.7,26.1,28.1,75,87,60,74.9,1013.3,1015.0,1008.2,1011.6,11.2,19.4,0.8,9.6,96,116.8,0.1,2.8,0.1,1.8,43.6,42,95,0,51.3,24.1,24.1,4.0,22.5,5
KG_TC,Đảo Thổ Chu - Kiên Giang,Kiên Giang,Phú Quốc,9.3,103.4833,2026-03-12 03:02:05,openmeteo,high,2026-03-12T10:00,,26.2,27.7,26.0,26.8,80,83,71,76.4,1013.2,1014.9,1008.6,1011.5,19.8,28.8,6.2,18.8,93,104.7,0.1,1.7,0.1,0.7,17.4,74,84,0,46.7,24.1,24.1,12.3,23.9,30
KT_NH,Huyện Ngọc Hồi - Kon Tum,Kon Tum,Ngọc Hồi,14.7,107.8333,2026-03-12 03:02:00,openmeteo,high,2026-03-12T10:00,,25.4,31.5,15.8,23.1,59,89,37,63.0,1015.9,1018.8,1009.6,1014.6,5.9,17.7,0.7,5.2,76,77.1,0.0,0.0,0.0,0.0,0.0,25,95,0,36.9,24.1,24.1,20.4,24.1,5
KT_DG,Huyện Đắk Glei - Kon Tum,Kon Tum,Đắk Glei,15.0167,107.75,2026-03-12 03:02:01,openmeteo,high,2026-03-12T10:00,,24.9,31.7,17.3,22.5,60,95,33,68.2,1017.0,1019.8,1010.6,1016.0,8.4,15.0,2.4,8.2,40,20.6,0.0,0.0,0.0,0.0,0.0,45,97,0,46.4,24.1,24.1,6.1,18.6,0
KT_KT,Thành phố Kon Tum - Kon Tum,Kon Tum,Kon Tum,14.3833,107.9833,2026-03-12 03:02:00,openmeteo,high,2026-03-12T10:00,,26.9,32.8,18.5,24.3,52,88,32,60.3,1015.5,1018.5,1009.1,1014.5,17.3,27.7,1.0,9.4,67,73.2,0.0,0.0,0.0,0.0,0.0,58,94,0,33.2,24.1,24.1,24.1,24.1,5
LC_PT,Huyện Phong Thổ - Lai Châu,Lai Châu,Phong Thổ,22.5333,103.3333,2026-03-12 03:01:47,openmeteo,high,2026-03-12T10:00,,17.8,25.4,15.2,18.9,82,96,56,79.7,1019.8,1021.2,1010.1,1016.4,4.5,9.2,1.9,4.7,166,170.5,0.0,1.0,0.1,0.6,14.4,100,100,49,89.3,23.8,24.1,6.9,22.6,0
LC_TN,Huyện Tam Đường - Lai Châu,Lai Châu,Tam Đường,22.3667,103.6167,2026-03-12 03:01:47,openmeteo,high,2026-03-12T10:00,,12.0,19.2,10.0,13.1,80,99,61,80.9,1020.5,1021.9,1011.3,1017.2,5.2,8.6,1.1,5.8,124,133.6,0.0,0.9,0.1,0.5,11.9,99,100,24,88.8,20.9,24.1,4.4,22.3,0
LC_LC,Thành phố Lai Châu - Lai Châu,Lai Châu,Lai Châu,22.4,103.45,2026-03-12 03:01:46,openmeteo,high,2026-03-12T10:00,,18.3,25.6,15.8,19.2,81,97,59,80.6,1020.2,1021.6,1010.8,1016.8,4.9,8.0,1.1,4.5,163,157.1,0.0,1.4,0.1,0.7,17.7,100,100,32,90.8,18.0,24.1,2.4,16.8,0
LA_DH,Huyện Đức Hòa - Long An,Long An,Đức Hòa,10.8833,106.4167,2026-03-12 03:02:02,openmeteo,high,2026-03-12T10:00,,29.3,35.9,22.6,27.9,69,94,35,68.2,1013.1,1015.2,1007.3,1011.3,11.5,20.0,0.0,7.5,358,93.5,0.0,0.2,0.1,0.0,0.3,62,92,0,49.6,24.1,24.1,22.7,24.1,5
LA_TA,Thành phố Tân An - Long An,Long An,Tân An,10.5333,106.4167,2026-03-12 03:02:02,openmeteo,high,2026-03-12T10:00,,28.6,33.7,22.9,27.2,69,92,40,71.7,1013.1,1015.2,1008.1,1011.5,9.7,20.7,0.8,10.5,45,107.0,0.0,1.6,0.4,0.2,4.1,87,91,3,51.9,24.1,24.1,24.1,24.1,5
LA_KT,Thị xã Kiến Tường - Long An,Long An,Kiến Tường,10.7667,105.9,2026-03-12 03:02:02,openmeteo,high,2026-03-12T10:00,,28.9,34.8,23.1,27.7,71,93,38,69.6,1013.2,1015.3,1007.3,1011.4,7.1,19.1,1.0,8.4,24,104.7,0.0,0.0,0.0,0.0,0.0,53,96,0,52.9,24.1,24.1,22.5,24.1,5
LC_BT,Huyện Bát Xát - Lào Cai,Lào Cai,Bát Xát,22.5333,103.8833,2026-03-12 03:02:01,openmeteo,high,2026-03-12T10:00,,12.5,21.4,10.5,14.8,97,100,63,87.8,1022.4,1023.5,1012.0,1018.4,7.2,12.1,1.1,5.8,72,173.3,0.1,0.3,0.1,0.1,3.0,100,100,16,88.7,24.1,24.1,3.3,19.0,10
LC_SM,Huyện Sa Pa - Lào Cai,Lào Cai,Sa Pa,22.3367,103.84,2026-03-12 03:02:01,openmeteo,high,2026-03-12T10:00,,15.7,22.8,13.5,16.6,79,100,64,83.1,1020.9,1022.3,1011.6,1017.6,6.0,11.5,1.8,6.3,73,125.2,0.0,1.9,0.1,0.7,17.2,100,100,22,90.1,12.5,24.1,2.2,15.1,0
LC_LC2,Thành phố Lào Cai - Lào Cai,Lào Cai,Lào Cai,22.4833,103.95,2026-03-12 03:02:01,openmeteo,high,2026-03-12T10:00,,18.4,27.5,17.2,19.7,85,100,65,84.8,1021.5,1022.6,1009.2,1017.3,3.7,10.6,0.4,4.0,101,77.5,0.0,0.2,0.1,0.1,1.5,98,100,21,90.9,24.1,24.1,3.3,19.0,0
LD_BD,Huyện Bảo Lâm - Lâm Đồng,Lâm Đồng,Bảo Lâm,11.7,107.7167,2026-03-12 03:01:03,openmeteo,high,2026-03-12T10:00,,24.7,31.9,17.6,23.3,61,90,28,64.7,1014.7,1016.8,1008.6,1013.1,13.3,17.1,1.4,7.5,52,55.3,0.0,0.2,0.1,0.0,0.6,0,99,0,37.3,24.1,24.1,10.0,23.9,0
LD_CD,Huyện Cát Tiên - Lâm Đồng,Lâm Đồng,Cát Tiên,11.5833,107.35,2026-03-12 03:01:02,openmeteo,high,2026-03-12T10:00,,28.6,34.6,20.9,26.7,56,90,34,63.9,1013.5,1015.6,1007.6,1011.9,8.4,13.3,0.5,4.6,70,61.0,0.0,1.1,0.1,0.2,4.1,34,100,0,42.4,24.1,24.1,21.6,24.1,5
LD_DD,Huyện Di Linh - Lâm Đồng,Lâm Đồng,Di Linh,11.5833,108.0667,2026-03-12 03:01:04,openmeteo,high,2026-03-12T10:00,,23.2,28.9,14.4,20.5,58,97,33,72.8,1015.2,1017.7,1009.4,1014.1,9.2,13.0,1.3,5.2,51,63.3,0.0,3.7,0.1,0.4,9.9,6,100,0,51.4,24.1,24.1,12.0,24.0,0
LD_LH,Huyện Lâm Hà - Lâm Đồng,Lâm Đồng,Lâm Hà,11.8333,108.2,2026-03-12 03:01:05,openmeteo,high,2026-03-12T10:00,,25.0,29.6,15.2,21.4,60,97,35,71.9,1015.4,1018.0,1010.2,1014.6,4.7,16.9,0.4,5.7,23,29.1,0.0,2.6,0.1,0.2,5.0,51,100,0,46.1,24.1,24.1,13.3,24.0,0
LD_LC,Huyện Lạc Dương - Lâm Đồng,Lâm Đồng,Lạc Dương,12.0,108.4333,2026-03-12 03:01:05,openmeteo,high,2026-03-12T10:00,,20.4,24.6,13.1,17.7,65,92,41,72.0,1016.3,1018.6,1011.2,1015.4,9.4,19.6,2.4,8.8,40,50.9,0.0,0.8,0.1,0.1,1.9,49,100,0,43.6,24.1,24.1,0.3,21.0,0
LD_DT2,Huyện Đam Rông - Lâm Đồng,Lâm Đồng,Đam Rông,12.0833,108.1667,2026-03-12 03:01:04,openmeteo,high,2026-03-12T10:00,,26.0,33.2,16.1,23.4,62,100,32,70.6,1015.2,1017.6,1009.2,1013.8,12.1,22.5,0.4,7.9,27,13.5,0.0,0.3,0.3,0.0,0.3,41,98,0,30.5,24.1,24.1,8.0,23.8,5
LD_DL2,Huyện Đơn Dương - Lâm Đồng,Lâm Đồng,Đơn Dương,11.75,108.55,2026-03-12 03:01:04,openmeteo,high,2026-03-12T10:00,,24.6,29.0,14.4,20.9,54,95,36,67.5,1015.3,1017.9,1010.3,1014.7,15.8,20.1,5.6,9.5,69,75.7,0.0,1.0,0.3,0.1,2.4,47,100,0,53.0,24.1,24.1,19.4,23.9,0
LD_DH,Huyện Đạ Huoai - Lâm Đồng,Lâm Đồng,Đạ Huoai,11.4167,107.6333,2026-03-12 03:01:03,openmeteo,high,2026-03-12T10:00,,29.1,33.8,20.4,26.8,62,98,43,74.1,1013.4,1015.6,1008.0,1011.8,2.5,12.7,0.4,4.4,225,131.7,0.0,1.2,0.1,0.1,3.4,0,100,0,43.9,24.1,24.1,18.0,24.0,5
LD_DT,Huyện Đạ Tẻh - Lâm Đồng,Lâm Đồng,Đạ Tẻh,11.5,107.5167,2026-03-12 03:01:04,openmeteo,high,2026-03-12T10:00,,29.5,35.9,20.8,27.4,54,94,32,66.1,1013.2,1015.4,1007.4,1011.6,2.7,10.5,0.0,3.8,67,43.5,0.0,4.8,0.1,0.4,9.4,6,100,0,43.8,24.1,24.1,12.3,23.9,5
LD_DR,Huyện Đức Trọng - Lâm Đồng,Lâm Đồng,Đức Trọng,11.7333,108.3,2026-03-12 03:01:05,openmeteo,high,2026-03-12T10:00,,24.1,29.8,14.9,21.3,60,100,33,72.5,1015.2,1017.8,1009.5,1014.1,5.2,12.4,0.8,5.0,56,70.5,0.0,2.3,0.1,0.3,6.4,29,100,0,54.8,24.1,24.1,13.3,24.0,0
LD_BA,Thành phố Bảo Lộc - Lâm Đồng,Lâm Đồng,Bảo Lộc,11.55,107.8,2026-03-12 03:01:03,openmeteo,high,2026-03-12T10:00,,26.2,30.2,18.4,23.6,63,90,49,72.5,1013.9,1016.1,1008.9,1012.5,0.8,10.2,0.7,6.0,27,95.2,0.0,0.6,0.1,0.1,2.9,0,92,0,44.0,24.1,24.1,18.0,24.0,5
LD_DL,Thành phố Đà Lạt - Lâm Đồng,Lâm Đồng,Đà Lạt,11.9404,108.4587,2026-03-12 03:01:03,openmeteo,high,2026-03-12T10:00,,21.1,25.2,13.7,18.4,65,92,41,72.0,1016.3,1018.6,1011.2,1015.4,9.4,19.6,2.4,8.8,40,50.9,0.0,0.8,0.1,0.1,1.9,49,100,0,43.6,24.1,24.1,0.3,21.0,0
LS_CL,Huyện Cao Lộc - Lạng Sơn,Lạng Sơn,Cao Lộc,21.9,106.8,2026-03-12 03:01:48,openmeteo,high,2026-03-12T10:00,,20.1,24.5,14.0,19.0,65,94,45,78.9,1021.8,1023.0,1011.8,1018.0,14.0,15.5,0.4,6.1,46,137.5,0.0,0.0,0.0,0.0,0.0,93,100,0,81.7,24.1,24.1,23.7,24.1,0
LS_LL,Huyện Lộc Bình - Lạng Sơn,Lạng Sơn,Lộc Bình,21.75,106.9333,2026-03-12 03:01:48,openmeteo,high,2026-03-12T10:00,,20.5,24.2,14.3,19.1,60,97,45,78.1,1021.6,1023.0,1011.9,1018.0,13.7,14.4,0.4,6.2,45,138.6,0.0,0.0,0.0,0.0,0.0,84,100,0,77.8,24.1,24.1,24.1,24.1,0
LS_LS,Thành phố Lạng Sơn - Lạng Sơn,Lạng Sơn,Lạng Sơn,21.8478,106.7578,2026-03-12 03:01:48,openmeteo,high,2026-03-12T10:00,,20.2,24.6,14.1,19.1,65,94,45,78.9,1021.8,1023.0,1011.8,1018.0,14.0,15.5,0.4,6.1,46,137.5,0.0,0.0,0.0,0.0,0.0,93,100,0,81.7,24.1,24.1,24.0,24.1,0
ND_GL,Huyện Giao Thủy - Nam Định,Nam Định,Giao Thủy,20.2333,106.45,2026-03-12 03:00:48,openmeteo,high,2026-03-12T10:00,,21.5,26.3,15.9,20.8,75,99,54,85.5,1021.0,1022.0,1011.4,1017.4,8.0,21.7,2.4,8.8,27,81.0,0.0,0.4,0.1,0.1,1.8,100,100,21,75.8,24.1,24.1,7.8,23.7,0
ND_HH,Huyện Hải Hậu - Nam Định,Nam Định,Hải Hậu,20.1833,106.3,2026-03-12 03:00:47,openmeteo,high,2026-03-12T10:00,,21.3,26.8,17.0,21.1,76,100,57,84.1,1021.1,1022.0,1011.1,1017.4,5.5,16.2,0.4,6.1,11,75.5,0.0,0.2,0.1,0.0,0.9,100,100,19,76.7,24.1,24.1,19.3,24.0,0
ND_ML,Huyện Mỹ Lộc - Nam Định,Nam Định,Mỹ Lộc,20.4667,106.1167,2026-03-12 03:00:48,openmeteo,high,2026-03-12T10:00,,20.9,27.7,17.5,21.3,74,99,51,82.2,1021.3,1022.3,1010.5,1017.4,2.6,15.5,0.7,5.9,344,126.5,0.0,0.3,0.1,0.1,3.5,100,100,13,80.5,24.1,24.1,14.0,23.9,0
ND_NC,Huyện Nam Trực - Nam Định,Nam Định,Nam Trực,20.3333,106.2,2026-03-12 03:00:48,openmeteo,high,2026-03-12T10:00,,21.2,27.0,16.1,20.9,74,99,54,84.5,1021.1,1022.1,1011.0,1017.4,5.4,18.8,1.8,7.4,8,90.4,0.0,0.4,0.1,0.1,2.1,100,100,10,78.5,24.1,24.1,17.5,24.0,0
ND_TK,Huyện Trực Ninh - Nam Định,Nam Định,Trực Ninh,20.25,106.25,2026-03-12 03:00:48,openmeteo,high,2026-03-12T10:00,,21.3,26.9,16.2,20.9,74,99,54,84.6,1021.1,1022.1,1011.1,1017.4,6.3,20.3,1.5,7.7,13,85.6,0.0,0.3,0.2,0.1,1.5,100,100,26,78.4,24.1,24.1,17.5,24.0,0
ND_VB,Huyện Vụ Bản - Nam Định,Nam Định,Vụ Bản,20.3667,106.1,2026-03-12 03:00:48,openmeteo,high,2026-03-12T10:00,,21.0,27.0,16.3,21.1,75,100,53,83.9,1021.2,1022.1,1010.7,1017.4,4.3,16.7,0.8,6.5,360,102.6,0.0,0.3,0.2,0.1,2.6,100,100,2,78.7,24.1,24.1,18.1,23.8,0
ND_XT,Huyện Xuân Trường - Nam Định,Nam Định,Xuân Trường,20.3,106.35,2026-03-12 03:00:49,openmeteo,high,2026-03-12T10:00,,21.5,26.2,15.9,20.8,75,99,54,85.5,1021.0,1022.0,1011.4,1017.4,8.0,21.7,2.4,8.8,27,81.0,0.0,0.4,0.1,0.1,1.8,100,100,21,75.8,24.1,24.1,17.5,24.0,0
ND_YN,Huyện Ý Yên - Nam Định,Nam Định,Ý Yên,20.3167,106.0167,2026-03-12 03:00:49,openmeteo,high,2026-03-12T10:00,,20.8,27.3,16.6,21.1,75,100,52,83.0,1021.3,1022.2,1010.6,1017.5,2.2,16.5,0.0,5.5,351,111.1,0.0,0.3,0.1,0.1,2.2,100,100,19,82.5,24.1,24.1,18.1,23.8,0
ND_TP,Thành phố Nam Định - Nam Định,Nam Định,Nam Định,20.42,106.1683,2026-03-12 03:00:47,openmeteo,high,2026-03-12T10:00,,21.0,27.0,16.3,21.0,75,100,53,83.9,1021.2,1022.1,1010.7,1017.4,4.3,16.7,0.8,6.5,360,102.6,0.0,0.3,0.2,0.1,2.6,100,100,2,78.7,24.1,24.1,17.5,24.0,0
NA_HH,Huyện Hoàng Mai - Nghệ An,Nghệ An,Hoàng Mai,19.2667,105.7167,2026-03-12 03:01:38,openmeteo,high,2026-03-12T10:00,,21.5,26.9,16.6,20.9,76,100,64,85.8,1020.8,1021.6,1010.9,1017.3,7.2,14.2,0.4,5.4,18,29.1,0.0,0.3,0.1,0.0,0.7,98,100,12,78.0,24.1,24.1,17.7,23.9,0
NA_VH,Thành phố Vinh - Nghệ An,Nghệ An,Vinh,18.6733,105.6811,2026-03-12 03:01:38,openmeteo,high,2026-03-12T10:00,,21.6,29.8,17.7,21.5,80,100,56,84.5,1020.7,1021.6,1010.0,1017.0,7.3,12.2,0.4,4.4,340,5.8,0.0,0.3,0.1,0.1,1.6,93,100,0,76.3,24.1,24.1,16.0,23.4,0
NA_CT,Thị xã Cửa Lò - Nghệ An,Nghệ An,Cửa Lò,18.8167,105.7167,2026-03-12 03:01:37,openmeteo,high,2026-03-12T10:00,,21.5,28.1,17.9,21.4,79,100,65,85.8,1020.7,1021.6,1010.6,1017.1,6.5,12.2,0.7,4.4,6,15.0,0.0,0.1,0.1,0.0,0.6,98,100,3,76.1,24.1,24.1,16.0,23.4,0
NA_TH,Thị xã Thái Hòa - Nghệ An,Nghệ An,Thái Hòa,19.3,105.4667,2026-03-12 03:01:38,openmeteo,high,2026-03-12T10:00,,20.8,28.1,16.9,21.0,77,100,57,83.1,1021.0,1021.8,1010.2,1017.3,5.8,13.2,0.0,4.4,4,43.0,0.0,0.1,0.1,0.0,0.3,97,100,35,79.8,24.1,24.1,23.1,24.1,0
NB_HS,Huyện Hoa Lư - Ninh Bình,Ninh Bình,Hoa Lư,20.2833,105.9167,2026-03-12 03:01:56,openmeteo,high,2026-03-12T10:00,,20.5,27.4,16.8,20.9,75,100,51,82.5,1021.3,1022.2,1010.6,1017.5,2.5,14.8,0.0,5.2,8,115.9,0.0,0.1,0.1,0.0,0.3,100,100,28,81.9,24.1,24.1,18.1,23.8,0
NB_NB,Thành phố Ninh Bình - Ninh Bình,Ninh Bình,Ninh Bình,20.2539,105.975,2026-03-12 03:01:56,openmeteo,high,2026-03-12T10:00,,20.9,27.0,17.0,21.0,75,100,51,83.3,1021.3,1022.2,1010.8,1017.4,4.0,15.1,0.4,5.3,5,103.7,0.0,0.2,0.2,0.0,0.6,100,100,15,81.5,24.1,24.1,18.1,23.8,0
NB_TL,Thành phố Tam Điệp - Ninh Bình,Ninh Bình,Tam Điệp,20.15,105.9167,2026-03-12 03:01:56,openmeteo,high,2026-03-12T10:00,,20.7,27.5,17.1,21.1,76,100,55,82.9,1021.2,1022.0,1010.8,1017.4,4.4,14.3,0.5,5.1,9,95.7,0.0,0.1,0.1,0.0,0.5,100,100,6,79.0,24.1,24.1,18.1,23.8,0
NT_NA,Huyện Ninh Hải - Ninh Thuận,Ninh Thuận,Ninh Hải,11.6,109.0333,2026-03-12 03:01:44,openmeteo,high,2026-03-12T10:00,,29.6,33.1,19.6,25.9,51,91,38,65.1,1014.1,1016.2,1009.7,1013.2,17.9,27.5,0.4,9.7,40,23.6,0.0,0.0,0.0,0.0,0.0,68,86,0,38.7,24.1,24.1,24.1,24.1,5
NT_TA,Huyện Thuận Bắc - Ninh Thuận,Ninh Thuận,Thuận Bắc,11.75,108.9333,2026-03-12 03:01:44,openmeteo,high,2026-03-12T10:00,,28.5,32.9,18.3,24.8,50,88,38,62.9,1014.3,1016.6,1009.8,1013.4,13.0,24.2,0.0,7.9,42,12.4,0.0,0.0,0.0,0.0,0.0,81,100,0,46.5,24.1,24.1,22.7,24.1,5
NT_PH,Thành phố Phan Rang-Tháp Chàm - Ninh Thuận,Ninh Thuận,Phan Rang-Tháp Chàm,11.5667,108.9833,2026-03-12 03:01:44,openmeteo,high,2026-03-12T10:00,,29.6,33.1,19.6,25.9,51,91,38,65.1,1014.1,1016.2,1009.7,1013.2,17.9,27.5,0.4,9.7,40,23.6,0.0,0.0,0.0,0.0,0.0,68,86,0,38.7,24.1,24.1,24.1,24.1,5
PT_HT,Huyện Hạ Hòa - Phú Thọ,Phú Thọ,Hạ Hòa,21.55,105.0,2026-03-12 03:01:52,openmeteo,high,2026-03-12T10:00,,19.1,24.8,15.4,20.0,87,99,51,85.5,1021.8,1022.7,1010.8,1017.5,2.3,10.4,0.4,3.7,72,111.6,0.0,0.3,0.1,0.1,1.8,94,100,20,88.5,24.1,24.1,7.1,23.6,10
PT_VT,Thành phố Việt Trì - Phú Thọ,Phú Thọ,Việt Trì,21.3,105.4333,2026-03-12 03:01:53,openmeteo,high,2026-03-12T10:00,,20.3,28.3,18.3,21.6,85,98,52,81.5,1021.5,1022.5,1009.6,1017.0,0.7,18.8,0.0,8.2,360,118.8,0.0,0.0,0.0,0.0,0.0,96,100,41,85.2,24.1,24.1,12.4,24.0,0
PT_PT,Thị xã Phú Thọ - Phú Thọ,Phú Thọ,Phú Thọ,21.4,105.2333,2026-03-12 03:01:53,openmeteo,high,2026-03-12T10:00,,19.8,27.3,16.9,21.3,89,95,52,82.2,1021.6,1022.6,1010.0,1017.1,1.8,18.1,0.4,7.0,90,124.3,0.0,0.1,0.1,0.0,0.6,100,100,32,86.2,24.1,24.1,5.1,23.5,10
PY_DD,Huyện Đông Hòa - Phú Yên,Phú Yên,Đông Hòa,12.9833,109.3667,2026-03-12 03:01:42,openmeteo,high,2026-03-12T10:00,,22.9,27.9,20.7,23.0,87,99,66,86.0,1016.9,1018.6,1011.7,1015.3,9.4,17.0,0.5,6.7,18,11.5,0.0,1.1,0.1,0.4,10.7,95,100,40,80.4,17.9,24.1,6.4,20.0,10
PY_TH,Thành phố Tuy Hòa - Phú Yên,Phú Yên,Tuy Hòa,13.0833,109.3,2026-03-12 03:01:41,openmeteo,high,2026-03-12T10:00,,24.9,30.2,20.6,23.8,72,98,52,77.6,1016.4,1018.3,1011.4,1015.0,15.7,19.1,0.7,9.0,37,44.8,0.0,0.3,0.1,0.0,0.6,86,97,17,70.5,17.9,24.1,6.4,20.0,0
PY_SH,Thị xã Sông Cầu - Phú Yên,Phú Yên,Sông Cầu,13.45,109.2167,2026-03-12 03:01:42,openmeteo,high,2026-03-12T10:00,,24.7,30.5,20.6,24.0,72,96,51,74.7,1016.7,1018.5,1011.5,1015.2,13.3,21.3,0.8,8.5,19,16.3,0.0,0.1,0.1,0.0,0.4,83,99,14,67.3,21.9,24.1,4.2,21.2,0
QB_BT,Huyện Bố Trạch - Quảng Bình,Quảng Bình,Bố Trạch,17.5,106.25,2026-03-12 03:00:54,openmeteo,high,2026-03-12T10:00,,17.7,26.9,15.2,18.2,81,100,61,86.1,1020.2,1021.5,1011.3,1017.4,10.5,12.6,0.8,6.4,27,51.8,0.0,0.3,0.2,0.1,1.5,86,100,29,81.8,0.1,24.1,0.1,15.8,0
QB_LT,Huyện Lệ Thủy - Quảng Bình,Quảng Bình,Lệ Thủy,17.2167,106.8,2026-03-12 03:00:54,openmeteo,high,2026-03-12T10:00,,21.1,28.3,19.9,21.8,86,97,63,87.2,1019.4,1020.8,1011.2,1016.7,9.1,11.4,0.0,5.0,351,41.0,0.0,2.2,0.1,0.5,11.2,99,100,42,82.3,13.0,24.1,4.5,20.8,10
QB_MC,Huyện Minh Hóa - Quảng Bình,Quảng Bình,Minh Hóa,17.7833,105.9167,2026-03-12 03:00:54,openmeteo,high,2026-03-12T10:00,,18.5,27.2,15.5,18.8,81,100,57,86.9,1020.5,1021.8,1011.6,1017.7,11.4,14.3,2.8,7.6,35,43.1,0.0,0.0,0.0,0.0,0.0,94,100,17,82.3,13.9,24.1,0.1,15.1,0
QB_QN,Huyện Quảng Ninh - Quảng Bình,Quảng Bình,Quảng Ninh,17.4,106.55,2026-03-12 03:00:55,openmeteo,high,2026-03-12T10:00,,20.4,28.3,17.9,20.6,82,99,61,86.5,1019.9,1021.5,1011.5,1017.3,10.3,12.0,1.3,6.0,25,73.7,0.0,0.3,0.1,0.2,4.1,90,100,44,85.3,11.0,24.1,2.7,21.0,0
QB_QH,Huyện Quảng Trạch - Quảng Bình,Quảng Bình,Quảng Trạch,17.8333,106.4167,2026-03-12 03:00:55,openmeteo,high,2026-03-12T10:00,,20.6,27.0,18.0,20.8,86,99,67,87.2,1019.9,1021.2,1011.2,1017.0,8.4,14.2,0.8,6.0,350,41.0,0.0,0.4,0.1,0.2,5.7,93,100,29,83.2,18.9,24.1,11.0,21.7,10
QB_TN,Huyện Tuyên Hóa - Quảng Bình,Quảng Bình,Tuyên Hóa,17.9,106.0,2026-03-12 03:00:55,openmeteo,high,2026-03-12T10:00,,19.8,29.4,18.0,21.0,90,99,63,88.0,1020.6,1021.7,1010.6,1017.3,6.7,10.9,0.4,4.3,344,347.7,0.0,0.5,0.1,0.2,3.6,95,100,0,83.3,22.6,24.1,3.2,22.6,10
QB_DH,Thành phố Đồng Hới - Quảng Bình,Quảng Bình,Đồng Hới,17.4687,106.6227,2026-03-12 03:00:54,openmeteo,high,2026-03-12T10:00,,20.3,27.7,18.2,20.7,85,97,64,87.0,1019.6,1021.3,1011.4,1017.0,9.9,12.5,0.4,5.3,19,52.9,0.0,0.3,0.1,0.2,5.1,90,100,33,84.7,11.0,24.1,2.7,21.0,0
QB_BAD,Thị xã Ba Đồn - Quảng Bình,Quảng Bình,Ba Đồn,17.75,106.4167,2026-03-12 03:00:54,openmeteo,high,2026-03-12T10:00,,21.3,27.7,19.4,21.7,87,98,67,86.7,1019.7,1021.1,1011.1,1016.8,6.9,15.1,0.4,5.3,332,31.2,0.0,0.3,0.1,0.2,4.4,100,100,31,79.0,18.9,24.1,11.0,21.7,10
QN_NT,Huyện Núi Thành - Quảng Nam,Quảng Nam,Núi Thành,15.4333,108.6667,2026-03-12 03:01:40,openmeteo,high,2026-03-12T10:00,,24.6,31.3,19.7,23.6,85,98,55,85.0,1018.1,1020.0,1011.4,1016.4,4.8,11.2,0.4,4.6,27,50.9,0.0,1.2,0.1,0.7,16.1,93,100,0,68.8,24.1,24.1,6.7,20.5,0
QN_DG,Huyện Điện Bàn - Quảng Nam,Quảng Nam,Điện Bàn,15.9,108.25,2026-03-12 03:01:39,openmeteo,high,2026-03-12T10:00,,23.6,29.6,18.9,23.1,82,96,57,84.2,1017.9,1020.0,1011.2,1016.2,7.9,15.3,0.7,5.6,30,11.9,0.0,1.0,0.1,0.8,18.2,93,100,0,70.9,12.0,24.1,6.3,19.4,0
QN_HT,Thành phố Hội An - Quảng Nam,Quảng Nam,Hội An,15.8833,108.3333,2026-03-12 03:01:39,openmeteo,high,2026-03-12T10:00,,23.4,29.4,18.7,22.9,82,96,57,84.2,1017.9,1020.0,1011.2,1016.2,7.9,15.3,0.7,5.6,30,11.9,0.0,1.0,0.1,0.8,18.2,93,100,0,70.9,12.0,24.1,6.3,19.4,0
QN_TC,Thành phố Tam Kỳ - Quảng Nam,Quảng Nam,Tam Kỳ,15.5667,108.4833,2026-03-12 03:01:39,openmeteo,high,2026-03-12T10:00,,23.3,29.6,18.1,22.5,83,100,55,85.6,1017.9,1019.9,1011.3,1016.2,6.1,13.4,0.4,4.5,40,61.1,0.0,1.1,0.1,1.0,23.6,94,100,6,74.4,24.1,24.1,6.7,20.5,0
QN_BT,Huyện Bình Sơn - Quảng Ngãi,Quảng Ngãi,Bình Sơn,15.3167,108.7667,2026-03-12 03:01:40,openmeteo,high,2026-03-12T10:00,,21.9,28.6,18.4,21.4,85,97,56,85.1,1018.1,1020.1,1011.7,1016.5,5.6,12.3,0.4,5.2,15,18.6,0.0,1.2,0.1,0.9,22.7,94,100,35,76.0,24.1,24.1,5.6,20.4,0
QN_LS,Huyện Lý Sơn - Quảng Ngãi,Quảng Ngãi,Lý Sơn,15.3833,109.1167,2026-03-12 03:01:41,openmeteo,high,2026-03-12T10:00,,24.1,25.4,23.1,24.1,74,86,63,77.1,1017.4,1019.3,1011.6,1015.8,11.4,18.2,2.3,9.4,24,27.6,0.0,1.4,0.1,1.2,29.7,82,97,0,56.9,23.0,24.1,4.6,21.3,0
QN_QN,Thành phố Quảng Ngãi - Quảng Ngãi,Quảng Ngãi,Quảng Ngãi,15.1167,108.8,2026-03-12 03:01:41,openmeteo,high,2026-03-12T10:00,,23.9,30.0,18.6,22.9,81,98,53,82.7,1017.7,1019.7,1011.5,1016.1,6.3,15.6,0.5,5.2,13,336.5,0.0,1.5,0.1,0.7,16.7,90,100,29,71.4,18.2,24.1,6.5,20.9,0
QN_LS2,Đảo Lý Sơn - Quảng Ngãi,Quảng Ngãi,Lý Sơn,15.3833,109.1167,2026-03-12 03:02:06,openmeteo,high,2026-03-12T10:00,,24.1,25.4,23.1,24.1,74,86,63,77.1,1017.4,1019.3,1011.6,1015.8,11.4,18.2,2.3,9.4,24,27.6,0.0,1.4,0.1,1.2,29.7,82,97,0,56.9,23.0,24.1,4.6,21.3,0
QN_BG,Huyện Ba Chẽ - Quảng Ninh,Quảng Ninh,Ba Chẽ,21.2833,107.1833,2026-03-12 03:00:44,openmeteo,high,2026-03-12T10:00,,22.2,25.8,15.9,20.3,65,100,50,79.4,1021.2,1022.9,1012.1,1018.1,7.4,16.3,0.5,5.9,39,98.5,0.0,0.3,0.1,0.0,1.2,70,100,0,73.1,24.1,24.1,21.1,24.1,0
QN_BQ,Huyện Bình Liêu - Quảng Ninh,Quảng Ninh,Bình Liêu,21.5333,107.4333,2026-03-12 03:00:44,openmeteo,high,2026-03-12T10:00,,21.2,24.1,14.2,19.1,59,97,48,80.2,1021.3,1023.0,1012.5,1018.4,11.2,15.3,1.8,7.0,42,121.5,0.0,0.0,0.0,0.0,0.0,68,100,0,72.6,24.1,24.1,2.2,23.2,0
QN_CT,Huyện Cô Tô - Quảng Ninh,Quảng Ninh,Cô Tô,20.9681,107.7639,2026-03-12 03:00:44,openmeteo,high,2026-03-12T10:00,,20.5,22.4,19.5,20.8,66,93,63,82.2,1021.1,1022.7,1012.5,1017.9,17.6,17.6,0.4,8.7,49,68.0,0.0,0.3,0.1,0.1,3.5,100,100,0,69.5,24.1,24.1,16.1,23.7,0
QN_HD,Huyện Hải Hà - Quảng Ninh,Quảng Ninh,Hải Hà,21.4333,107.7167,2026-03-12 03:00:44,openmeteo,high,2026-03-12T10:00,,19.4,21.4,14.3,17.6,62,99,57,84.8,1021.5,1023.6,1013.0,1018.8,7.7,13.2,1.0,6.0,53,109.2,0.0,0.3,0.1,0.2,3.9,82,100,0,78.5,24.1,24.1,13.2,23.3,0
QN_TY,Huyện Tiên Yên - Quảng Ninh,Quảng Ninh,Tiên Yên,21.3833,107.3833,2026-03-12 03:00:45,openmeteo,high,2026-03-12T10:00,,22.2,25.2,14.3,19.9,63,97,50,79.4,1021.1,1022.9,1012.2,1018.2,3.3,17.7,0.0,6.2,84,102.2,0.0,0.1,0.1,0.0,0.3,57,100,0,72.3,24.1,24.1,2.2,23.2,0
QN_VD,Huyện Vân Đồn - Quảng Ninh,Quảng Ninh,Vân Đồn,20.9551,107.4764,2026-03-12 03:00:45,openmeteo,high,2026-03-12T10:00,,22.2,26.0,15.7,20.5,66,100,50,80.8,1021.2,1022.9,1012.2,1018.1,10.1,17.3,0.4,6.5,55,62.4,0.0,0.6,0.1,0.2,3.7,100,100,0,76.8,24.1,24.1,16.5,23.9,0
QN_DH,Huyện Đầm Hà - Quảng Ninh,Quảng Ninh,Đầm Hà,21.3667,107.6,2026-03-12 03:00:44,openmeteo,high,2026-03-12T10:00,,23.2,24.8,15.4,20.6,61,98,52,81.8,1021.1,1023.1,1012.6,1018.3,6.8,18.6,2.2,7.1,90,75.7,0.0,0.5,0.1,0.1,2.4,60,100,0,76.9,24.1,24.1,0.6,23.4,0
QN_CP,Thành phố Cẩm Phả - Quảng Ninh,Quảng Ninh,Cẩm Phả,21.0167,107.3167,2026-03-12 03:00:42,openmeteo,high,2026-03-12T10:00,,21.8,25.3,15.1,20.0,64,97,51,78.7,1021.0,1022.8,1012.4,1018.0,8.7,19.5,1.0,7.9,66,75.6,0.0,0.4,0.1,0.1,1.9,100,100,0,69.5,24.1,24.1,16.5,23.9,0
QN_HL,Thành phố Hạ Long - Quảng Ninh,Quảng Ninh,Hạ Long,20.9582,107.0758,2026-03-12 03:00:42,openmeteo,high,2026-03-12T10:00,,23.1,26.0,17.1,21.7,65,94,53,78.7,1020.9,1022.6,1012.2,1017.8,7.1,21.4,1.9,8.5,75,78.6,0.0,0.2,0.2,0.0,0.6,100,100,0,68.1,24.1,24.1,18.5,24.0,0
QN_MC,Thành phố Móng Cái - Quảng Ninh,Quảng Ninh,Móng Cái,21.5247,107.9664,2026-03-12 03:00:43,openmeteo,high,2026-03-12T10:00,,22.5,25.0,16.4,20.5,56,94,46,80.3,1021.2,1023.5,1012.5,1018.3,10.3,14.0,0.5,5.0,36,52.2,0.0,0.7,0.1,0.3,6.8,85,100,0,75.0,24.1,24.1,13.2,23.3,0
QN_UB,Thành phố Uông Bí - Quảng Ninh,Quảng Ninh,Uông Bí,21.0361,106.7633,2026-03-12 03:00:42,openmeteo,high,2026-03-12T10:00,,23.4,26.1,15.9,21.4,68,94,49,79.9,1021.0,1022.5,1011.6,1017.6,2.3,19.4,0.7,7.8,51,95.7,0.0,0.1,0.1,0.0,0.3,86,100,0,73.7,24.1,24.1,22.8,24.1,0
QN_QY,Thị xã Quảng Yên - Quảng Ninh,Quảng Ninh,Quảng Yên,20.9333,106.8167,2026-03-12 03:00:43,openmeteo,high,2026-03-12T10:00,,22.2,25.0,17.9,21.2,67,93,56,79.7,1021.0,1022.4,1011.8,1017.6,5.4,18.8,1.1,8.3,53,88.0,0.0,0.1,0.1,0.0,0.6,100,100,0,71.4,24.1,24.1,22.8,24.1,0
QN_DK,Thị xã Đông Triều - Quảng Ninh,Quảng Ninh,Đông Triều,21.0833,106.5,2026-03-12 03:00:43,openmeteo,high,2026-03-12T10:00,,23.4,26.9,17.6,21.8,69,93,42,79.0,1021.1,1022.5,1011.1,1017.5,5.9,15.6,0.7,6.3,38,119.3,0.0,0.2,0.1,0.1,1.4,86,100,12,79.9,24.1,24.1,22.3,24.1,0
QN_CT,Đảo Cô Tô - Quảng Ninh,Quảng Ninh,Cô Tô,20.9681,107.7639,2026-03-12 03:02:04,openmeteo,high,2026-03-12T10:00,,20.5,22.4,19.5,20.8,66,93,63,82.2,1021.1,1022.7,1012.5,1017.9,17.6,17.6,0.4,8.7,49,68.0,0.0,0.3,0.1,0.1,3.5,100,100,0,69.5,24.1,24.1,16.1,23.7,0
QN_VD,Đảo Vân Đồn - Quảng Ninh,Quảng Ninh,Vân Đồn,20.9551,107.4764,2026-03-12 03:02:04,openmeteo,high,2026-03-12T10:00,,22.2,26.0,15.7,20.5,66,100,50,80.8,1021.2,1022.9,1012.2,1018.1,10.1,17.3,0.4,6.5,55,62.4,0.0,0.6,0.1,0.2,3.7,100,100,0,76.8,24.1,24.1,16.5,23.9,0
QT_CL,Huyện Cam Lộ - Quảng Trị,Quảng Trị,Cam Lộ,16.8,106.9833,2026-03-12 03:00:52,openmeteo,high,2026-03-12T10:00,,20.7,29.4,18.2,21.4,87,99,55,85.7,1019.2,1020.8,1011.0,1016.6,7.1,15.3,1.4,6.2,15,26.2,0.0,0.7,0.1,0.3,6.8,100,100,32,80.3,7.8,24.1,2.8,20.5,10
QT_CC,Huyện Cồn Cỏ - Quảng Trị,Quảng Trị,Cồn Cỏ,17.1597,107.3408,2026-03-12 03:00:52,openmeteo,high,2026-03-12T10:00,,22.1,24.2,22.0,23.2,84,88,74,81.2,1018.7,1020.3,1010.9,1016.3,17.7,29.9,9.4,17.9,13,89.5,0.1,1.0,0.1,1.0,23.5,94,100,0,67.0,11.3,24.1,7.6,21.2,25
QT_GL,Huyện Gio Linh - Quảng Trị,Quảng Trị,Gio Linh,16.9167,107.05,2026-03-12 03:00:53,openmeteo,high,2026-03-12T10:00,,21.7,29.8,18.4,22.2,88,100,57,86.8,1019.1,1020.6,1010.9,1016.4,10.1,15.6,0.0,6.0,356,18.9,0.1,0.6,0.1,0.5,12.4,100,100,37,81.3,16.9,24.1,6.8,20.4,35
QT_HL,Huyện Hướng Hóa - Quảng Trị,Quảng Trị,Hướng Hóa,16.7,106.6667,2026-03-12 03:00:53,openmeteo,high,2026-03-12T10:00,,23.2,32.6,19.2,22.7,70,90,40,70.1,1017.9,1019.4,1009.6,1015.5,15.9,19.7,3.7,10.7,52,64.7,0.0,0.0,0.0,0.0,0.0,73,89,0,42.5,2.9,24.1,0.1,12.9,0
QT_HH,Huyện Hải Lăng - Quảng Trị,Quảng Trị,Hải Lăng,16.7,107.25,2026-03-12 03:00:53,openmeteo,high,2026-03-12T10:00,,22.0,27.7,20.1,22.4,88,100,70,86.7,1018.7,1020.3,1010.9,1016.2,10.2,17.7,0.0,7.5,8,67.9,0.1,0.7,0.1,0.6,14.8,93,100,26,71.7,16.8,24.1,2.1,20.7,35
QT_TL,Huyện Triệu Phong - Quảng Trị,Quảng Trị,Triệu Phong,16.7833,107.1667,2026-03-12 03:00:53,openmeteo,high,2026-03-12T10:00,,21.7,29.6,17.9,22.1,88,100,57,86.4,1018.9,1020.4,1010.8,1016.3,10.1,16.6,0.4,6.1,360,28.5,0.2,0.6,0.1,0.5,12.7,96,100,29,77.0,16.8,24.1,2.1,20.7,35
QT_VL,Huyện Vĩnh Linh - Quảng Trị,Quảng Trị,Vĩnh Linh,17.0,106.9333,2026-03-12 03:00:53,openmeteo,high,2026-03-12T10:00,,19.4,27.8,18.2,20.4,89,99,63,89.0,1019.6,1021.3,1011.4,1017.1,7.4,14.1,0.8,5.6,14,81.3,0.0,2.2,0.1,0.4,9.2,100,100,36,83.1,16.9,24.1,6.8,20.4,10
QT_DK,Huyện Đa Krông - Quảng Trị,Quảng Trị,Đa Krông,16.5556,106.9722,2026-03-12 03:00:52,openmeteo,high,2026-03-12T10:00,,20.9,29.2,16.7,20.9,85,100,54,84.2,1018.9,1020.2,1011.0,1016.5,10.0,18.4,2.2,9.2,49,60.8,0.0,0.1,0.1,0.0,0.1,95,100,3,71.6,7.1,24.1,0.1,17.4,0
QT_DH,Thành phố Đông Hà - Quảng Trị,Quảng Trị,Đông Hà,16.816,107.1,2026-03-12 03:00:51,openmeteo,high,2026-03-12T10:00,,21.1,29.2,17.8,21.6,88,100,57,86.8,1019.1,1020.6,1010.9,1016.4,10.1,15.6,0.0,6.0,356,18.9,0.1,0.6,0.1,0.5,12.4,100,100,37,81.3,7.8,24.1,2.8,20.5,35
QT_QH,Thị xã Quảng Trị - Quảng Trị,Quảng Trị,Quảng Trị,16.75,107.1833,2026-03-12 03:00:52,openmeteo,high,2026-03-12T10:00,,21.7,29.6,18.0,22.2,88,100,57,86.4,1018.9,1020.4,1010.8,1016.3,10.1,16.6,0.4,6.1,360,28.5,0.2,0.6,0.1,0.5,12.7,96,100,29,77.0,16.8,24.1,2.1,20.7,35
QT_CC2,Đảo Cồn Cỏ - Quảng Trị,Quảng Trị,Cồn Cỏ,17.1597,107.3408,2026-03-12 03:02:06,openmeteo,high,2026-03-12T10:00,,22.1,24.2,22.0,23.2,84,88,74,81.2,1018.7,1020.3,1010.9,1016.3,17.7,29.9,9.4,17.9,13,89.5,0.1,1.0,0.1,1.0,23.5,94,100,0,67.0,11.3,24.1,7.6,21.2,25
ST_CL,Huyện Châu Thành - Sóc Trăng,Sóc Trăng,Châu Thành,9.7,105.9,2026-03-12 03:01:32,openmeteo,high,2026-03-12T10:00,,29.2,33.3,23.1,27.4,65,90,43,69.0,1012.9,1014.9,1008.0,1011.5,18.4,26.0,6.1,14.7,78,96.2,0.0,0.0,0.0,0.0,0.0,73,100,3,52.6,24.1,24.1,22.5,24.1,5
ST_CT,Huyện Cù Lao Dung - Sóc Trăng,Sóc Trăng,Cù Lao Dung,9.6667,106.1667,2026-03-12 03:01:33,openmeteo,high,2026-03-12T10:00,,29.6,33.2,23.8,27.5,60,87,43,68.5,1012.9,1014.9,1008.3,1011.6,21.2,28.6,8.0,17.5,75,91.3,0.0,0.0,0.0,0.0,0.0,76,88,16,51.7,24.1,24.1,24.1,24.1,5
ST_KS,Huyện Kế Sách - Sóc Trăng,Sóc Trăng,Kế Sách,9.8167,105.9833,2026-03-12 03:01:33,openmeteo,high,2026-03-12T10:00,,29.1,33.4,23.5,27.5,65,90,44,69.2,1013.0,1014.9,1008.0,1011.5,16.4,23.9,5.8,14.2,75,96.5,0.0,0.1,0.1,0.0,0.2,82,92,0,53.1,24.1,24.1,22.5,24.1,5
ST_LT,Huyện Long Phú - Sóc Trăng,Sóc Trăng,Long Phú,9.6167,106.1167,2026-03-12 03:01:33,openmeteo,high,2026-03-12T10:00,,29.6,33.2,23.8,27.5,60,87,43,68.5,1012.9,1014.9,1008.3,1011.6,21.2,28.6,8.0,17.5,75,91.3,0.0,0.0,0.0,0.0,0.0,76,88,16,51.7,24.1,24.1,14.9,24.0,5
ST_MD,Huyện Mỹ Tú - Sóc Trăng,Sóc Trăng,Mỹ Tú,9.6333,105.8167,2026-03-12 03:01:33,openmeteo,high,2026-03-12T10:00,,29.1,33.1,23.3,27.4,63,90,43,69.5,1012.9,1014.9,1008.0,1011.5,19.1,26.4,6.6,15.4,78,94.7,0.0,0.0,0.0,0.0,0.0,67,100,4,51.8,24.1,24.1,19.5,24.1,5
ST_MX,Huyện Mỹ Xuyên - Sóc Trăng,Sóc Trăng,Mỹ Xuyên,9.5333,105.9833,2026-03-12 03:01:33,openmeteo,high,2026-03-12T10:00,,29.5,32.8,24.1,27.4,60,87,45,70.1,1012.9,1014.9,1008.4,1011.6,23.7,30.3,7.6,18.4,77,90.7,0.0,0.0,0.0,0.0,0.0,86,88,5,49.8,24.1,24.1,14.9,24.0,5
ST_TN,Huyện Thạnh Trị - Sóc Trăng,Sóc Trăng,Thạnh Trị,9.4667,105.7167,2026-03-12 03:01:34,openmeteo,high,2026-03-12T10:00,,29.4,33.0,23.5,27.4,60,90,44,69.9,1012.9,1014.8,1008.1,1011.5,21.6,27.5,6.2,16.3,79,93.8,0.0,0.0,0.0,0.0,0.0,82,99,5,54.3,24.1,24.1,15.7,24.0,5
ST_TP,Huyện Trần Đề - Sóc Trăng,Sóc Trăng,Trần Đề,9.5,106.0833,2026-03-12 03:01:34,openmeteo,high,2026-03-12T10:00,,29.3,32.0,24.6,27.2,61,86,50,71.4,1013.0,1015.0,1008.6,1011.7,24.6,31.0,10.2,20.1,78,89.6,0.0,0.0,0.0,0.0,0.0,80,88,10,51.6,24.1,24.1,14.9,24.0,5
ST_ST,Thành phố Sóc Trăng - Sóc Trăng,Sóc Trăng,Sóc Trăng,9.6025,105.9739,2026-03-12 03:01:32,openmeteo,high,2026-03-12T10:00,,29.4,33.0,23.7,27.4,60,87,43,68.8,1012.9,1014.9,1008.2,1011.6,21.5,28.3,7.6,17.2,76,91.8,0.0,0.0,0.0,0.0,0.0,77,88,5,51.4,24.1,24.1,14.9,24.0,5
ST_NG,Thị xã Ngã Năm - Sóc Trăng,Sóc Trăng,Ngã Năm,9.5667,105.85,2026-03-12 03:01:32,openmeteo,high,2026-03-12T10:00,,29.1,33.1,23.3,27.4,63,90,43,69.5,1012.9,1014.9,1008.0,1011.5,19.1,26.4,6.6,15.4,78,94.7,0.0,0.0,0.0,0.0,0.0,67,100,4,51.8,24.1,24.1,15.7,24.0,5
ST_VC,Thị xã Vĩnh Châu - Sóc Trăng,Sóc Trăng,Vĩnh Châu,9.3333,105.9833,2026-03-12 03:01:32,openmeteo,high,2026-03-12T10:00,,29.3,32.3,24.9,27.4,61,85,49,70.5,1012.9,1014.9,1008.5,1011.7,24.6,30.2,9.3,19.9,78,89.5,0.0,0.0,0.0,0.0,0.0,81,90,3,50.0,24.1,24.1,14.9,24.0,5
SL_ML,Huyện Mộc Châu - Sơn La,Sơn La,Mộc Châu,20.85,104.6333,2026-03-12 03:01:47,openmeteo,high,2026-03-12T10:00,,17.0,27.6,11.5,18.1,82,97,53,80.8,1021.8,1022.8,1010.3,1017.8,7.3,15.5,1.1,6.0,57,117.2,0.0,0.7,0.1,0.3,7.5,95,100,25,78.6,24.1,24.1,0.4,22.3,0
SL_YB,Huyện Yên Châu - Sơn La,Sơn La,Yên Châu,21.05,104.3,2026-03-12 03:01:46,openmeteo,high,2026-03-12T10:00,,20.4,30.6,16.0,21.9,77,98,52,77.5,1020.9,1022.2,1009.6,1017.0,6.2,16.7,1.0,5.7,69,90.4,0.0,1.8,0.1,0.5,11.7,100,100,36,82.3,20.1,24.1,11.1,23.1,0
SL_SL,Thành phố Sơn La - Sơn La,Sơn La,Sơn La,21.3256,103.9189,2026-03-12 03:01:46,openmeteo,high,2026-03-12T10:00,,19.3,28.5,14.9,20.3,75,95,53,78.2,1020.4,1021.8,1010.0,1016.6,7.1,19.5,0.8,6.1,114,136.1,0.0,1.3,0.1,0.5,10.8,96,100,3,81.8,24.0,24.1,4.8,22.4,0
HCM_BC,Huyện Bình Chánh - TP Hồ Chí Minh,TP Hồ Chí Minh,Bình Chánh,10.7269,106.5672,2026-03-12 03:00:33,openmeteo,high,2026-03-12T10:00,,29.5,35.2,23.3,27.7,64,95,34,68.8,1013.0,1015.1,1007.6,1011.4,10.8,21.7,0.0,8.8,4,119.7,0.0,1.3,0.4,0.1,2.2,64,93,0,53.0,24.1,24.1,20.7,24.1,5
HCM_CG,Huyện Cần Giờ - TP Hồ Chí Minh,TP Hồ Chí Minh,Cần Giờ,10.4111,106.9547,2026-03-12 03:00:34,openmeteo,high,2026-03-12T10:00,,28.8,32.5,24.4,27.6,62,81,45,68.2,1013.1,1015.1,1008.4,1011.6,3.6,20.0,1.0,11.6,84,100.0,0.0,0.2,0.1,0.0,0.3,50,91,0,52.2,24.1,24.1,24.1,24.1,5
HCM_CC,Huyện Củ Chi - TP Hồ Chí Minh,TP Hồ Chí Minh,Củ Chi,10.9733,106.4939,2026-03-12 03:00:33,openmeteo,high,2026-03-12T10:00,,29.8,35.9,22.4,27.9,61,91,33,67.2,1013.0,1015.2,1007.2,1011.3,11.2,18.0,0.0,6.5,358,112.1,0.0,0.5,0.1,0.0,1.1,51,92,0,50.9,24.1,24.1,22.7,24.1,5
HCM_HM,Huyện Hóc Môn - TP Hồ Chí Minh,TP Hồ Chí Minh,Hóc Môn,10.8894,106.5953,2026-03-12 03:00:32,openmeteo,high,2026-03-12T10:00,,29.7,35.9,23.0,28.0,61,92,31,67.0,1013.0,1015.1,1007.3,1011.3,10.1,19.6,0.4,7.3,358,115.8,0.0,0.1,0.1,0.0,0.4,44,97,0,53.8,24.1,24.1,22.7,24.1,5
HCM_NB,Huyện Nhà Bè - TP Hồ Chí Minh,TP Hồ Chí Minh,Nhà Bè,10.6956,106.735,2026-03-12 03:00:33,openmeteo,high,2026-03-12T10:00,,29.8,35.2,23.4,27.8,59,92,35,67.5,1013.0,1015.1,1007.9,1011.4,8.0,21.6,0.0,8.9,352,118.6,0.0,2.5,0.1,0.1,3.3,45,94,0,52.2,24.1,24.1,24.1,24.1,5
HCM_1,Quận 1 - TP Hồ Chí Minh,TP Hồ Chí Minh,Quận 1,10.7757,106.7004,2026-03-12 03:00:28,openmeteo,high,2026-03-12T10:00,,29.8,35.2,23.4,27.8,59,92,35,67.5,1013.0,1015.1,1007.9,1011.4,8.0,21.6,0.0,8.9,352,118.6,0.0,2.5,0.1,0.1,3.3,45,94,0,52.2,24.1,24.1,24.1,24.1,5
HCM_10,Quận 10 - TP Hồ Chí Minh,TP Hồ Chí Minh,Quận 10,10.7679,106.6668,2026-03-12 03:00:30,openmeteo,high,2026-03-12T10:00,,29.4,35.2,23.3,27.7,64,95,34,68.8,1013.0,1015.1,1007.6,1011.4,10.8,21.7,0.0,8.8,4,119.7,0.0,1.3,0.4,0.1,2.2,64,93,0,53.0,24.1,24.1,24.1,24.1,5
HCM_11,Quận 11 - TP Hồ Chí Minh,TP Hồ Chí Minh,Quận 11,10.7639,106.6474,2026-03-12 03:00:30,openmeteo,high,2026-03-12T10:00,,29.4,35.2,23.3,27.7,64,95,34,68.8,1013.0,1015.1,1007.6,1011.4,10.8,21.7,0.0,8.8,4,119.7,0.0,1.3,0.4,0.1,2.2,64,93,0,53.0,24.1,24.1,24.1,24.1,5
HCM_12,Quận 12 - TP Hồ Chí Minh,TP Hồ Chí Minh,Quận 12,10.8642,106.6543,2026-03-12 03:00:31,openmeteo,high,2026-03-12T10:00,,29.7,35.9,23.0,28.0,61,92,31,67.0,1013.0,1015.1,1007.3,1011.3,10.1,19.6,0.4,7.3,358,115.8,0.0,0.1,0.1,0.0,0.4,44,97,0,53.8,24.1,24.1,24.1,24.1,5
HCM_2,Quận 2 - TP Hồ Chí Minh,TP Hồ Chí Minh,Quận 2,10.7872,106.7498,2026-03-12 03:00:29,openmeteo,high,2026-03-12T10:00,,29.8,35.2,23.4,27.8,59,92,35,67.5,1013.0,1015.1,1007.9,1011.4,8.0,21.6,0.0,8.9,352,118.6,0.0,2.5,0.1,0.1,3.3,45,94,0,52.2,24.1,24.1,24.1,24.1,5
HCM_3,Quận 3 - TP Hồ Chí Minh,TP Hồ Chí Minh,Quận 3,10.7823,106.6848,2026-03-12 03:00:29,openmeteo,high,2026-03-12T10:00,,29.4,35.2,23.3,27.7,64,95,34,68.8,1013.0,1015.1,1007.6,1011.4,10.8,21.7,0.0,8.8,4,119.7,0.0,1.3,0.4,0.1,2.2,64,93,0,53.0,24.1,24.1,24.1,24.1,5
HCM_4,Quận 4 - TP Hồ Chí Minh,TP Hồ Chí Minh,Quận 4,10.7642,106.7053,2026-03-12 03:00:28,openmeteo,high,2026-03-12T10:00,,29.8,35.1,23.4,27.8,59,92,35,67.5,1013.0,1015.1,1007.9,1011.4,8.0,21.6,0.0,8.9,352,118.6,0.0,2.5,0.1,0.1,3.3,45,94,0,52.2,24.1,24.1,24.1,24.1,5
HCM_5,Quận 5 - TP Hồ Chí Minh,TP Hồ Chí Minh,Quận 5,10.754,106.669,2026-03-12 03:00:29,openmeteo,high,2026-03-12T10:00,,29.4,35.1,23.2,27.6,64,95,34,68.8,1013.0,1015.1,1007.6,1011.4,10.8,21.7,0.0,8.8,4,119.7,0.0,1.3,0.4,0.1,2.2,64,93,0,53.0,24.1,24.1,24.1,24.1,5
HCM_6,Quận 6 - TP Hồ Chí Minh,TP Hồ Chí Minh,Quận 6,10.7464,106.6492,2026-03-12 03:00:29,openmeteo,high,2026-03-12T10:00,,29.4,35.2,23.3,27.7,64,95,34,68.8,1013.0,1015.1,1007.6,1011.4,10.8,21.7,0.0,8.8,4,119.7,0.0,1.3,0.4,0.1,2.2,64,93,0,53.0,24.1,24.1,24.1,24.1,5
HCM_7,Quận 7 - TP Hồ Chí Minh,TP Hồ Chí Minh,Quận 7,10.7329,106.7269,2026-03-12 03:00:30,openmeteo,high,2026-03-12T10:00,,29.8,35.2,23.4,27.8,59,92,35,67.5,1013.0,1015.1,1007.9,1011.4,8.0,21.6,0.0,8.9,352,118.6,0.0,2.5,0.1,0.1,3.3,45,94,0,52.2,24.1,24.1,24.1,24.1,5
HCM_8,Quận 8 - TP Hồ Chí Minh,TP Hồ Chí Minh,Quận 8,10.7241,106.6286,2026-03-12 03:00:29,openmeteo,high,2026-03-12T10:00,,29.4,35.2,23.3,27.7,64,95,34,68.8,1013.0,1015.1,1007.6,1011.4,10.8,21.7,0.0,8.8,4,119.7,0.0,1.3,0.4,0.1,2.2,64,93,0,53.0,24.1,24.1,24.1,24.1,5
HCM_9,Quận 9 - TP Hồ Chí Minh,TP Hồ Chí Minh,Quận 9,10.8428,106.8287,2026-03-12 03:00:30,openmeteo,high,2026-03-12T10:00,,30.1,35.9,22.8,28.0,55,91,30,66.8,1013.0,1015.1,1007.5,1011.4,7.1,19.9,0.4,7.0,345,124.7,0.0,0.5,0.1,0.1,1.4,17,93,0,52.9,24.1,24.1,24.1,24.1,10
HCM_BT2,Quận Bình Thạnh - TP Hồ Chí Minh,TP Hồ Chí Minh,Bình Thạnh,10.801,106.6959,2026-03-12 03:00:32,openmeteo,high,2026-03-12T10:00,,29.8,35.1,23.4,27.8,59,92,35,67.5,1013.0,1015.1,1007.9,1011.4,8.0,21.6,0.0,8.9,352,118.6,0.0,2.5,0.1,0.1,3.3,45,94,0,52.2,24.1,24.1,24.1,24.1,5
HCM_BT,Quận Bình Tân - TP Hồ Chí Minh,TP Hồ Chí Minh,Bình Tân,10.7654,106.6032,2026-03-12 03:00:32,openmeteo,high,2026-03-12T10:00,,29.4,35.2,23.3,27.7,64,95,34,68.8,1013.0,1015.1,1007.6,1011.4,10.8,21.7,0.0,8.8,4,119.7,0.0,1.3,0.4,0.1,2.2,64,93,0,53.0,24.1,24.1,20.7,24.1,5
HCM_GB,Quận Gò Vấp - TP Hồ Chí Minh,TP Hồ Chí Minh,Gò Vấp,10.8383,106.6653,2026-03-12 03:00:31,openmeteo,high,2026-03-12T10:00,,29.6,35.9,22.9,27.9,61,92,31,67.0,1013.0,1015.1,1007.3,1011.3,10.1,19.6,0.4,7.3,358,115.8,0.0,0.1,0.1,0.0,0.4,44,97,0,53.8,24.1,24.1,24.1,24.1,5
HCM_PN,Quận Phú Nhuận - TP Hồ Chí Minh,TP Hồ Chí Minh,Phú Nhuận,10.7992,106.6753,2026-03-12 03:00:32,openmeteo,high,2026-03-12T10:00,,29.4,35.1,23.2,27.6,64,95,34,68.8,1013.0,1015.1,1007.6,1011.4,10.8,21.7,0.0,8.8,4,119.7,0.0,1.3,0.4,0.1,2.2,64,93,0,53.0,24.1,24.1,24.1,24.1,5
HCM_TB,Quận Tân Bình - TP Hồ Chí Minh,TP Hồ Chí Minh,Tân Bình,10.8014,106.6526,2026-03-12 03:00:31,openmeteo,high,2026-03-12T10:00,,29.4,35.2,23.3,27.7,64,95,34,68.8,1013.0,1015.1,1007.6,1011.4,10.8,21.7,0.0,8.8,4,119.7,0.0,1.3,0.4,0.1,2.2,64,93,0,53.0,24.1,24.1,24.1,24.1,5
HCM_TP,Quận Tân Phú - TP Hồ Chí Minh,TP Hồ Chí Minh,Tân Phú,10.7902,106.6289,2026-03-12 03:00:32,openmeteo,high,2026-03-12T10:00,,29.4,35.2,23.3,27.7,64,95,34,68.8,1013.0,1015.1,1007.6,1011.4,10.8,21.7,0.0,8.8,4,119.7,0.0,1.3,0.4,0.1,2.2,64,93,0,53.0,24.1,24.1,24.1,24.1,5
HCM_TD,Thành phố Thủ Đức - TP Hồ Chí Minh,TP Hồ Chí Minh,Thủ Đức,10.8494,106.7717,2026-03-12 03:00:32,openmeteo,high,2026-03-12T10:00,,29.6,35.8,22.9,27.9,61,92,31,67.0,1013.0,1015.1,1007.3,1011.3,10.1,19.6,0.4,7.3,358,115.8,0.0,0.1,0.1,0.0,0.4,44,97,0,53.8,24.1,24.1,24.1,24.1,5
TH_NC,Huyện Nghi Sơn - Thanh Hóa,Thanh Hóa,Nghi Sơn,19.45,105.7833,2026-03-12 03:01:37,openmeteo,high,2026-03-12T10:00,,21.3,28.1,17.3,20.9,75,100,58,83.8,1021.1,1021.8,1010.5,1017.4,7.4,12.5,0.4,4.7,14,56.0,0.0,0.1,0.1,0.0,0.1,99,100,22,78.0,24.1,24.1,18.3,23.9,0
TH_TH,Thành phố Thanh Hóa - Thanh Hóa,Thanh Hóa,Thanh Hóa,19.8,105.7667,2026-03-12 03:01:37,openmeteo,high,2026-03-12T10:00,,20.5,28.2,17.1,20.8,79,99,57,83.5,1021.2,1021.9,1010.5,1017.4,6.5,13.0,0.4,4.7,360,115.6,0.0,0.2,0.1,0.0,1.1,98,100,29,79.3,24.1,24.1,14.2,23.4,0
TH_BT,Thị xã Bỉm Sơn - Thanh Hóa,Thanh Hóa,Bỉm Sơn,20.0781,105.8603,2026-03-12 03:01:37,openmeteo,high,2026-03-12T10:00,,20.8,27.7,17.2,21.2,76,100,55,82.9,1021.2,1022.0,1010.8,1017.4,4.4,14.3,0.5,5.1,9,95.7,0.0,0.1,0.1,0.0,0.5,100,100,6,79.0,24.1,24.1,20.3,24.0,0
TH_SL,Thị xã Sầm Sơn - Thanh Hóa,Thanh Hóa,Sầm Sơn,19.7333,105.9,2026-03-12 03:01:37,openmeteo,high,2026-03-12T10:00,,21.1,28.3,17.6,21.3,77,100,54,82.7,1021.1,1021.9,1010.6,1017.3,4.7,12.6,0.5,4.3,360,93.0,0.0,0.4,0.1,0.0,1.0,99,100,15,76.1,24.1,24.1,14.2,23.4,0
TB_HH,Huyện Hưng Hà - Thái Bình,Thái Bình,Hưng Hà,20.6,106.2167,2026-03-12 03:00:46,openmeteo,high,2026-03-12T10:00,,21.2,26.7,16.5,21.0,74,99,52,83.8,1021.2,1022.3,1010.7,1017.4,4.0,18.0,0.4,7.3,350,109.5,0.0,0.4,0.1,0.1,3.0,100,100,14,79.6,24.1,24.1,17.5,24.0,0
TB_KL,Huyện Kiến Xương - Thái Bình,Thái Bình,Kiến Xương,20.4,106.4167,2026-03-12 03:00:46,openmeteo,high,2026-03-12T10:00,,21.4,26.5,16.2,20.9,75,99,56,84.6,1021.1,1022.1,1011.1,1017.4,5.8,19.9,1.3,7.8,22,90.9,0.0,0.5,0.1,0.1,2.4,100,100,22,78.7,24.1,24.1,7.8,23.7,0
TB_QH,Huyện Quỳnh Phụ - Thái Bình,Thái Bình,Quỳnh Phụ,20.65,106.3333,2026-03-12 03:00:46,openmeteo,high,2026-03-12T10:00,,21.8,26.5,15.8,20.7,74,99,52,84.5,1021.2,1022.2,1010.8,1017.4,4.0,19.1,1.1,8.1,350,107.0,0.0,0.5,0.1,0.2,4.5,100,100,9,79.1,24.1,24.1,16.8,23.9,0
TB_TT,Huyện Thái Thụy - Thái Bình,Thái Bình,Thái Thụy,20.5333,106.5333,2026-03-12 03:00:46,openmeteo,high,2026-03-12T10:00,,21.9,26.2,15.9,20.8,73,99,55,84.3,1021.1,1022.1,1011.1,1017.5,5.8,21.2,1.4,8.6,30,95.1,0.0,0.4,0.1,0.1,2.9,100,100,5,77.1,24.1,24.1,7.8,23.7,0
TB_VT,Huyện Vũ Thư - Thái Bình,Thái Bình,Vũ Thư,20.4333,106.2833,2026-03-12 03:00:47,openmeteo,high,2026-03-12T10:00,,21.2,27.0,16.1,20.9,74,99,54,84.5,1021.1,1022.1,1011.0,1017.4,5.4,18.8,1.8,7.4,8,90.4,0.0,0.4,0.1,0.1,2.1,100,100,10,78.5,24.1,24.1,17.5,24.0,0
TB_DH,Huyện Đông Hưng - Thái Bình,Thái Bình,Đông Hưng,20.55,106.35,2026-03-12 03:00:45,openmeteo,high,2026-03-12T10:00,,21.5,26.4,16.1,20.8,75,99,57,84.6,1021.2,1022.2,1011.0,1017.4,4.9,19.1,0.7,7.6,17,95.5,0.0,0.5,0.2,0.1,2.9,100,100,13,78.1,24.1,24.1,17.5,24.0,0
TB_TP,Thành phố Thái Bình - Thái Bình,Thái Bình,Thái Bình,20.4461,106.3366,2026-03-12 03:00:46,openmeteo,high,2026-03-12T10:00,,21.4,26.4,16.1,20.8,75,99,57,84.6,1021.2,1022.2,1011.0,1017.4,4.9,19.1,0.7,7.6,17,95.5,0.0,0.5,0.2,0.1,2.9,100,100,13,78.1,24.1,24.1,17.5,24.0,0
TN_DD,Huyện Định Hóa - Thái Nguyên,Thái Nguyên,Định Hóa,21.9,105.6333,2026-03-12 03:01:51,openmeteo,high,2026-03-12T10:00,,20.3,23.8,15.7,19.9,73,97,54,81.5,1021.7,1022.7,1011.0,1017.6,9.2,13.8,0.8,5.5,101,103.1,0.0,0.1,0.1,0.0,0.3,98,100,42,89.6,24.1,24.1,10.2,23.8,0
TN_SC,Thành phố Sông Công - Thái Nguyên,Thái Nguyên,Sông Công,21.4833,105.85,2026-03-12 03:01:51,openmeteo,high,2026-03-12T10:00,,21.5,26.7,16.7,20.9,69,94,47,79.8,1021.4,1022.7,1010.4,1017.5,7.9,13.3,0.4,6.1,39,142.9,0.0,0.1,0.1,0.1,1.8,97,100,63,90.2,24.1,24.1,17.2,23.9,0
TN_TN,Thành phố Thái Nguyên - Thái Nguyên,Thái Nguyên,Thái Nguyên,21.5928,105.8442,2026-03-12 03:01:51,openmeteo,high,2026-03-12T10:00,,22.3,26.5,16.1,21.4,69,98,43,78.0,1021.4,1022.5,1010.5,1017.3,5.3,16.1,0.4,7.0,62,118.7,0.0,0.1,0.1,0.0,0.9,95,100,47,89.3,24.1,24.1,17.2,23.9,0
TTH_AD,Huyện A Lưới - Thừa Thiên Huế,Thừa Thiên Huế,A Lưới,16.2333,107.3,2026-03-12 03:00:50,openmeteo,high,2026-03-12T10:00,,19.9,27.9,15.5,19.5,83,100,56,85.0,1019.2,1020.8,1011.8,1017.1,7.5,15.5,1.4,7.2,73,85.4,0.0,0.1,0.1,0.0,0.7,92,100,4,73.5,21.0,24.1,0.1,12.4,0
TTH_NL,Huyện Nam Đông - Thừa Thiên Huế,Thừa Thiên Huế,Nam Đông,16.1667,107.7,2026-03-12 03:00:50,openmeteo,high,2026-03-12T10:00,,22.4,29.9,16.4,21.7,87,100,51,85.6,1018.6,1020.5,1011.0,1016.4,4.8,10.9,0.5,4.0,13,67.5,0.1,0.9,0.1,0.5,12.7,89,100,0,73.2,18.6,24.1,4.2,21.3,10
TTH_PD,Huyện Phong Điền - Thừa Thiên Huế,Thừa Thiên Huế,Phong Điền,16.5833,107.35,2026-03-12 03:00:50,openmeteo,high,2026-03-12T10:00,,22.4,28.5,18.3,22.5,88,100,65,86.4,1018.5,1020.1,1010.8,1016.1,6.6,18.8,1.1,7.6,29,101.3,0.2,0.9,0.1,0.8,19.0,94,100,0,69.7,10.8,24.1,0.9,18.3,35
TTH_PL,Huyện Phú Lộc - Thừa Thiên Huế,Thừa Thiên Huế,Phú Lộc,16.2667,107.9,2026-03-12 03:00:50,openmeteo,high,2026-03-12T10:00,,23.4,30.5,17.3,22.8,87,98,57,83.9,1018.5,1020.2,1011.1,1016.2,5.6,12.5,0.4,4.6,15,88.4,0.1,0.9,0.1,0.5,11.5,87,100,0,63.9,8.0,24.1,3.2,20.4,35
TTH_QD,Huyện Quảng Điền - Thừa Thiên Huế,Thừa Thiên Huế,Quảng Điền,16.5833,107.5,2026-03-12 03:00:51,openmeteo,high,2026-03-12T10:00,,22.5,28.8,16.8,22.1,88,100,64,86.6,1018.5,1020.2,1010.8,1016.2,4.8,15.6,0.4,5.7,27,112.1,0.1,0.9,0.1,0.7,16.6,91,100,5,69.7,17.6,24.1,7.7,21.3,35
TTH_H,Thành phố Huế - Thừa Thiên Huế,Thừa Thiên Huế,Huế,16.4637,107.5909,2026-03-12 03:00:49,openmeteo,high,2026-03-12T10:00,,22.8,27.4,18.4,22.4,86,100,70,86.3,1018.4,1020.1,1010.8,1016.1,7.0,19.3,1.6,8.2,35,96.1,0.1,0.9,0.1,0.8,19.9,91,100,0,66.5,17.6,24.1,7.7,21.3,35
TTH_HL,Thị xã Hương Thủy - Thừa Thiên Huế,Thừa Thiên Huế,Hương Thủy,16.4167,107.7167,2026-03-12 03:00:49,openmeteo,high,2026-03-12T10:00,,23.1,29.7,17.5,22.6,85,100,59,84.6,1018.3,1020.1,1010.8,1016.1,6.6,16.2,0.5,5.5,29,88.7,0.1,0.9,0.1,0.7,17.5,90,100,0,66.9,21.5,24.1,7.5,22.0,25
TTH_HT,Thị xã Hương Trà - Thừa Thiên Huế,Thừa Thiên Huế,Hương Trà,16.5,107.4833,2026-03-12 03:00:50,openmeteo,high,2026-03-12T10:00,,22.5,28.8,16.8,22.1,88,100,64,86.6,1018.5,1020.2,1010.8,1016.2,4.8,15.6,0.4,5.7,27,112.1,0.1,0.9,0.1,0.7,16.6,91,100,5,69.7,17.6,24.1,7.7,21.3,35
TG_CB,Huyện Cai Lậy - Tiền Giang,Tiền Giang,Cai Lậy,10.4,106.1167,2026-03-12 03:01:23,openmeteo,high,2026-03-12T10:00,,29.0,33.4,23.8,27.7,66,91,41,70.0,1013.1,1015.2,1007.9,1011.5,11.9,21.1,0.4,11.7,65,100.9,0.0,1.6,0.1,0.1,3.3,88,90,2,54.6,24.1,24.1,13.5,24.0,5
TG_CL,Huyện Châu Thành - Tiền Giang,Tiền Giang,Châu Thành,10.45,106.25,2026-03-12 03:01:22,openmeteo,high,2026-03-12T10:00,,28.9,34.0,23.0,27.3,68,92,38,71.6,1013.1,1015.2,1008.0,1011.5,10.3,19.4,1.0,9.7,36,106.0,0.0,2.5,0.4,0.2,4.8,80,96,0,53.0,24.1,24.1,23.4,24.1,5
TG_CL2,Huyện Chợ Gạo - Tiền Giang,Tiền Giang,Chợ Gạo,10.35,106.4667,2026-03-12 03:01:23,openmeteo,high,2026-03-12T10:00,,28.2,33.4,23.6,27.5,69,89,43,69.7,1013.2,1015.2,1008.3,1011.6,9.0,23.5,2.9,13.4,61,100.7,0.0,0.3,0.1,0.0,0.8,88,94,0,52.9,24.1,24.1,24.1,24.1,5
TG_CT,Huyện Cái Bè - Tiền Giang,Tiền Giang,Cái Bè,10.3333,105.95,2026-03-12 03:01:21,openmeteo,high,2026-03-12T10:00,,29.0,34.2,22.9,27.6,67,92,38,70.3,1013.1,1015.2,1007.7,1011.5,11.0,19.7,1.8,10.3,58,101.7,0.0,1.1,0.2,0.1,3.1,76,96,2,56.5,24.1,24.1,15.4,24.0,5
TG_GC,Huyện Gò Công Tây - Tiền Giang,Tiền Giang,Gò Công Tây,10.35,106.6,2026-03-12 03:01:22,openmeteo,high,2026-03-12T10:00,,28.3,32.8,23.3,27.4,69,89,45,70.2,1013.2,1015.2,1008.3,1011.6,7.5,24.4,1.4,13.4,55,101.2,0.0,0.4,0.1,0.0,0.7,77,97,0,52.3,24.1,24.1,24.1,24.1,5
TG_GD,Huyện Gò Công Đông - Tiền Giang,Tiền Giang,Gò Công Đông,10.3667,106.7167,2026-03-12 03:01:23,openmeteo,high,2026-03-12T10:00,,28.7,31.6,23.1,27.1,65,88,52,71.5,1013.1,1015.1,1008.6,1011.7,7.2,25.7,3.0,15.5,63,97.6,0.0,0.0,0.0,0.0,0.0,87,91,0,48.0,24.1,24.1,24.1,24.1,5
TG_TP,Huyện Tân Phú Đông - Tiền Giang,Tiền Giang,Tân Phú Đông,10.25,106.6,2026-03-12 03:01:22,openmeteo,high,2026-03-12T10:00,,28.7,32.3,24.3,27.4,65,85,48,70.4,1013.2,1015.1,1008.7,1011.7,10.6,26.2,6.0,16.6,66,94.9,0.0,0.0,0.0,0.0,0.0,80,93,0,49.6,24.1,24.1,24.1,24.1,5
TG_TL,Huyện Tân Phước - Tiền Giang,Tiền Giang,Tân Phước,10.5,106.15,2026-03-12 03:01:22,openmeteo,high,2026-03-12T10:00,,28.8,34.3,22.9,27.3,69,92,36,71.8,1013.1,1015.2,1007.8,1011.5,10.0,18.5,0.7,9.1,41,101.3,0.0,0.5,0.1,0.1,1.4,80,96,2,56.5,24.1,24.1,23.4,24.1,5
TG_MT,Thành phố Mỹ Tho - Tiền Giang,Tiền Giang,Mỹ Tho,10.35,106.35,2026-03-12 03:01:21,openmeteo,high,2026-03-12T10:00,,28.4,33.5,23.1,27.4,68,92,42,70.6,1013.2,1015.2,1008.1,1011.5,10.2,21.5,0.7,11.9,58,103.2,0.0,1.6,0.1,0.1,3.5,92,92,0,52.7,24.1,24.1,24.1,24.1,5
TG_GL,Thị xã Gò Công - Tiền Giang,Tiền Giang,Gò Công,10.3667,106.6667,2026-03-12 03:01:21,openmeteo,high,2026-03-12T10:00,,28.3,32.8,23.3,27.4,69,89,45,70.2,1013.2,1015.2,1008.3,1011.6,7.5,24.4,1.4,13.4,55,101.2,0.0,0.4,0.1,0.0,0.7,77,97,0,52.3,24.1,24.1,24.1,24.1,5
TV_CL,Huyện Càng Long - Trà Vinh,Trà Vinh,Càng Long,9.9667,106.2,2026-03-12 03:02:03,openmeteo,high,2026-03-12T10:00,,28.9,33.1,23.7,27.5,64,91,44,69.1,1013.1,1015.0,1008.3,1011.6,15.0,26.2,6.3,15.5,69,96.6,0.0,0.0,0.0,0.0,0.0,86,91,0,52.6,24.1,24.1,24.1,24.1,5
TV_CN,Huyện Cầu Ngang - Trà Vinh,Trà Vinh,Cầu Ngang,9.8,106.4333,2026-03-12 03:02:03,openmeteo,high,2026-03-12T10:00,,29.2,32.3,24.2,27.3,63,88,47,70.2,1013.0,1015.1,1008.6,1011.7,20.4,29.3,9.2,17.9,73,91.2,0.0,0.0,0.0,0.0,0.0,81,88,18,51.3,24.1,24.1,24.1,24.1,5
TV_TV,Thành phố Trà Vinh - Trà Vinh,Trà Vinh,Trà Vinh,9.9347,106.3453,2026-03-12 03:02:03,openmeteo,high,2026-03-12T10:00,,29.2,32.6,24.3,27.4,63,86,46,69.4,1013.0,1015.0,1008.5,1011.7,18.4,28.5,8.5,17.5,73,93.0,0.0,0.0,0.0,0.0,0.0,86,90,0,52.3,24.1,24.1,24.1,24.1,5
TQ_LB,Huyện Lâm Bình - Tuyên Quang,Tuyên Quang,Lâm Bình,22.4667,105.2167,2026-03-12 03:01:52,openmeteo,high,2026-03-12T10:00,,20.3,25.2,16.4,19.5,79,96,60,86.1,1021.4,1022.8,1010.4,1017.6,2.1,7.6,0.7,3.2,149,150.5,0.0,0.4,0.1,0.2,5.1,100,100,62,95.1,24.1,24.1,6.4,22.8,0
TQ_NH,Huyện Na Hang - Tuyên Quang,Tuyên Quang,Na Hang,22.35,105.3833,2026-03-12 03:01:51,openmeteo,high,2026-03-12T10:00,,21.5,25.7,17.2,20.7,77,95,57,84.5,1021.4,1022.7,1010.7,1017.6,4.6,9.9,0.0,3.3,129,166.8,0.0,0.5,0.1,0.2,4.5,98,100,53,93.3,24.1,24.1,14.8,23.6,0
TQ_TQ,Thành phố Tuyên Quang - Tuyên Quang,Tuyên Quang,Tuyên Quang,21.8181,105.2144,2026-03-12 03:01:51,openmeteo,high,2026-03-12T10:00,,21.8,26.6,17.6,21.6,79,99,52,82.2,1021.4,1022.4,1010.1,1017.1,5.1,14.5,0.5,5.2,176,145.3,0.0,0.2,0.1,0.1,2.7,100,100,54,91.8,24.1,24.1,9.8,23.8,0
TN_TB,Huyện Tân Biên - Tây Ninh,Tây Ninh,Tân Biên,11.55,105.9667,2026-03-12 03:02:02,openmeteo,high,2026-03-12T10:00,,29.5,34.8,22.2,28.1,61,93,33,65.9,1013.2,1015.3,1006.9,1011.3,9.1,13.2,0.7,5.3,342,54.2,0.0,1.0,0.1,0.1,2.2,0,100,0,50.8,24.1,24.1,20.4,24.0,5
TN_TC,Huyện Tân Châu - Tây Ninh,Tây Ninh,Tân Châu,11.3333,106.1667,2026-03-12 03:02:03,openmeteo,high,2026-03-12T10:00,,29.9,35.6,22.0,28.4,63,93,34,65.7,1013.2,1015.3,1006.9,1011.3,11.3,16.6,0.7,6.3,343,72.1,0.0,0.1,0.1,0.0,0.3,22,100,0,51.8,24.1,24.1,17.6,24.0,5
TN_TN2,Thành phố Tây Ninh - Tây Ninh,Tây Ninh,Tây Ninh,11.3131,106.0963,2026-03-12 03:02:02,openmeteo,high,2026-03-12T10:00,,29.9,35.7,22.1,28.4,63,93,34,65.7,1013.2,1015.3,1006.9,1011.3,11.3,16.6,0.7,6.3,343,72.1,0.0,0.1,0.1,0.0,0.3,22,100,0,51.8,24.1,24.1,18.8,24.0,5
VL_BT,Huyện Bình Tân - Vĩnh Long,Vĩnh Long,Bình Tân,10.0833,105.7667,2026-03-12 03:01:26,openmeteo,high,2026-03-12T10:00,,29.1,34.2,23.3,27.5,66,91,41,70.7,1013.1,1015.1,1007.9,1011.5,13.1,20.0,3.1,10.7,74,102.1,0.0,2.2,0.1,0.2,5.7,66,99,0,53.7,24.1,24.1,15.6,24.0,5
VL_LH,Huyện Long Hồ - Vĩnh Long,Vĩnh Long,Long Hồ,10.2,106.0167,2026-03-12 03:01:26,openmeteo,high,2026-03-12T10:00,,29.2,34.1,23.0,27.3,65,93,39,71.2,1013.1,1015.1,1007.8,1011.5,12.9,20.4,2.6,10.4,72,103.4,0.0,2.3,0.1,0.3,6.2,60,96,1,55.6,24.1,24.1,15.4,24.0,5
VL_MT,Huyện Mang Thít - Vĩnh Long,Vĩnh Long,Mang Thít,10.1833,106.1,2026-03-12 03:01:27,openmeteo,high,2026-03-12T10:00,,28.8,33.4,23.4,27.6,64,92,42,69.1,1013.1,1015.2,1008.0,1011.5,13.0,22.6,4.3,13.3,71,99.8,0.0,0.3,0.1,0.0,1.1,83,89,10,54.2,24.1,24.1,15.4,24.0,5
VL_TL,Huyện Tam Bình - Vĩnh Long,Vĩnh Long,Tam Bình,10.0667,105.9833,2026-03-12 03:01:27,openmeteo,high,2026-03-12T10:00,,28.9,33.7,23.3,27.4,66,93,40,70.1,1013.1,1015.2,1007.9,1011.5,13.6,21.8,3.3,11.7,73,102.1,0.0,1.2,0.1,0.1,3.3,63,87,1,55.0,24.1,24.1,23.0,24.1,5
VL_TR,Huyện Trà Ôn - Vĩnh Long,Vĩnh Long,Trà Ôn,9.9667,105.8833,2026-03-12 03:01:28,openmeteo,high,2026-03-12T10:00,,29.1,33.2,23.7,27.4,66,91,44,70.7,1013.0,1015.0,1007.9,1011.5,15.3,21.0,4.7,12.3,75,99.2,0.0,0.7,0.1,0.1,1.8,64,92,0,53.9,24.1,24.1,23.0,24.1,5
VL_VT,Huyện Vũng Liêm - Vĩnh Long,Vĩnh Long,Vũng Liêm,10.0833,106.1667,2026-03-12 03:01:27,openmeteo,high,2026-03-12T10:00,,28.8,33.4,23.4,27.6,64,92,42,69.1,1013.1,1015.2,1008.0,1011.5,13.0,22.6,4.3,13.3,71,99.8,0.0,0.3,0.1,0.0,1.1,83,89,10,54.2,24.1,24.1,24.1,24.1,5
VL_VL,Thành phố Vĩnh Long - Vĩnh Long,Vĩnh Long,Vĩnh Long,10.25,105.9667,2026-03-12 03:01:25,openmeteo,high,2026-03-12T10:00,,29.2,34.1,23.0,27.3,65,93,39,71.2,1013.1,1015.1,1007.8,1011.5,12.9,20.4,2.6,10.4,72,103.4,0.0,2.3,0.1,0.3,6.2,60,96,1,55.6,24.1,24.1,15.4,24.0,5
