station_id,station_name,province,district,latitude,longitude,timestamp,data_source,data_quality,data_time,error_reason,temperature_current,temperature_max,temperature_min,temperature_avg,humidity_current,humidity_max,humidity_min,humidity_avg,pressure_current,pressure_max,pressure_min,pressure_avg,wind_speed_current,wind_speed_max,wind_speed_min,wind_speed_avg,wind_direction_current,wind_direction_avg,rain_current,rain_max,rain_min,rain_avg,rain_total,cloud_cover_current,cloud_cover_max,cloud_cover_min,cloud_cover_avg,visibility_current,visibility_max,visibility_min,visibility_avg,thunder_probability
AG_AT,Huyện An Phú - An Giang,An Giang,An Phú,10.8333,105.0833,2026-03-12 14:01:10,openmeteo,high,2026-03-12T21:00,,26.7,34.6,22.7,27.7,73,94,39,70.5,1010.2,1015.7,1007.5,1011.5,11.5,13.8,0.4,6.0,166,112.1,0.0,0.9,0.1,0.1,3.0,48,100,0,54.6,24.1,24.1,6.8,23.9,5
AG_CL,Huyện Châu Phú - An Giang,An Giang,Châu Phú,10.5667,105.1667,2026-03-12 14:01:10,openmeteo,high,2026-03-12T21:00,,26.2,34.5,23.1,27.6,78,92,38,70.5,1010.7,1015.7,1007.7,1011.5,6.5,13.7,0.4,6.2,180,120.8,0.0,0.4,0.1,0.0,0.9,59,92,0,56.0,24.1,24.1,22.2,24.1,5
AG_CP,Huyện Châu Thành - An Giang,An Giang,Châu Thành,10.45,105.25,2026-03-12 14:01:11,openmeteo,high,2026-03-12T21:00,,25.5,34.3,22.4,27.1,84,94,39,73.5,1010.8,1015.6,1007.8,1011.5,6.5,15.2,0.7,6.5,183,118.2,0.0,0.1,0.1,0.0,0.3,60,88,3,58.6,24.1,24.1,22.2,24.1,5
AG_CT,Huyện Chợ Mới - An Giang,An Giang,Chợ Mới,10.5333,105.3833,2026-03-12 14:01:11,openmeteo,high,2026-03-12T21:00,,25.8,34.3,22.4,27.4,81,93,39,72.4,1010.7,1015.6,1007.7,1011.5,7.6,14.5,0.4,6.5,177,122.9,0.0,0.1,0.1,0.0,0.3,68,88,0,58.6,24.1,24.1,19.8,24.1,5
AG_PT,Huyện Phú Tân - An Giang,An Giang,Phú Tân,10.65,105.2833,2026-03-12 14:01:11,openmeteo,high,2026-03-12T21:00,,25.9,34.7,22.9,27.6,79,94,37,70.8,1010.6,1015.6,1007.6,1011.5,6.8,12.7,0.5,5.8,177,124.1,0.0,0.1,0.1,0.0,0.4,63,86,0,57.8,24.1,24.1,19.2,24.0,5
AG_TV,Huyện Thoại Sơn - An Giang,An Giang,Thoại Sơn,10.2667,105.2667,2026-03-12 14:01:11,openmeteo,high,2026-03-12T21:00,,25.7,34.2,23.0,27.3,85,93,40,72.9,1011.0,1015.5,1007.9,1011.5,5.2,15.4,1.3,7.5,168,102.9,0.1,0.8,0.1,0.2,4.7,81,89,0,55.9,24.1,24.1,21.9,24.1,30
AG_TX,Huyện Tri Tôn - An Giang,An Giang,Tri Tôn,10.4167,105.0,2026-03-12 14:01:12,openmeteo,high,2026-03-12T21:00,,26.1,33.9,23.3,27.6,84,91,41,72.1,1010.9,1015.6,1007.9,1011.6,4.7,14.8,1.0,6.6,180,110.0,0.0,0.1,0.1,0.0,0.4,56,89,0,59.2,24.1,24.1,22.0,24.1,5
AG_TN,Huyện Tịnh Biên - An Giang,An Giang,Tịnh Biên,10.55,105.0,2026-03-12 14:01:12,openmeteo,high,2026-03-12T21:00,,26.4,34.5,23.4,27.9,83,91,39,70.1,1010.9,1015.6,1007.9,1011.6,5.0,14.6,1.3,6.7,180,109.0,0.0,0.2,0.1,0.0,0.6,62,87,3,60.6,24.1,24.1,22.0,24.1,5
AG_CD,Thành phố Châu Đốc - An Giang,An Giang,Châu Đốc,10.7,105.1167,2026-03-12 14:01:09,openmeteo,high,2026-03-12T21:00,,26.6,34.4,22.7,27.7,78,94,39,70.9,1010.5,1015.7,1007.6,1011.5,11.4,13.4,0.0,6.1,169,112.3,0.0,0.8,0.1,0.1,3.0,54,100,14,55.5,24.1,24.1,6.8,23.9,5
AG_LX,Thành phố Long Xuyên - An Giang,An Giang,Long Xuyên,10.3865,105.4351,2026-03-12 14:01:09,openmeteo,high,2026-03-12T21:00,,25.7,34.6,22.4,27.3,82,94,38,72.2,1010.8,1015.6,1007.7,1011.5,7.9,16.4,0.4,7.4,156,109.1,0.0,0.3,0.1,0.1,1.5,72,88,0,57.3,24.1,24.1,19.8,24.1,5
AG_AP,Thị xã Tân Châu - An Giang,An Giang,Tân Châu,10.8,105.2167,2026-03-12 14:01:10,openmeteo,high,2026-03-12T21:00,,26.0,34.7,22.7,27.6,79,96,38,70.3,1010.5,1015.6,1007.5,1011.5,9.5,13.2,0.5,6.0,171,121.9,0.0,0.2,0.1,0.0,0.8,45,87,0,57.9,24.1,24.1,19.2,24.0,5
BR_CH,Huyện Châu Đức - Bà Rịa - Vũng Tàu,Bà Rịa - Vũng Tàu,Châu Đức,10.65,107.25,2026-03-12 14:01:09,openmeteo,high,2026-03-12T21:00,,25.1,33.6,22.7,26.9,75,88,38,67.7,1010.8,1015.6,1008.5,1011.7,15.6,23.9,1.4,12.9,105,97.1,0.0,0.7,0.1,0.1,1.6,28,95,0,52.6,24.1,24.1,24.1,24.1,5
BR_CD,Huyện Côn Đảo - Bà Rịa - Vũng Tàu,Bà Rịa - Vũng Tàu,Côn Đảo,8.6822,106.6089,2026-03-12 14:01:08,openmeteo,high,2026-03-12T21:00,,26.1,26.9,25.6,26.1,80,84,75,79.5,1011.4,1014.9,1008.7,1011.7,28.7,34.8,17.6,27.2,75,73.6,0.0,0.0,0.0,0.0,0.0,46,95,4,47.5,24.1,24.1,24.1,24.1,5
BR_LD,Huyện Long Điền - Bà Rịa - Vũng Tàu,Bà Rịa - Vũng Tàu,Long Điền,10.4667,107.2333,2026-03-12 14:01:09,openmeteo,high,2026-03-12T21:00,,26.0,33.4,24.0,27.5,73,85,44,68.0,1010.8,1015.5,1008.6,1011.7,18.6,25.9,2.1,16.0,99,94.7,0.0,0.1,0.1,0.0,0.1,34,93,3,48.6,24.1,24.1,24.1,24.1,5
BR_XM,Huyện Xuyên Mộc - Bà Rịa - Vũng Tàu,Bà Rịa - Vũng Tàu,Xuyên Mộc,10.6333,107.4333,2026-03-12 14:01:08,openmeteo,high,2026-03-12T21:00,,24.6,34.0,22.4,26.6,77,87,38,69.8,1010.9,1015.7,1008.6,1011.8,12.5,22.5,0.5,11.2,102,93.1,0.0,0.7,0.1,0.0,1.1,18,93,7,51.6,24.1,24.1,24.1,24.1,0
BR_DD,Huyện Đất Đỏ - Bà Rịa - Vũng Tàu,Bà Rịa - Vũng Tàu,Đất Đỏ,10.5,107.2833,2026-03-12 14:01:08,openmeteo,high,2026-03-12T21:00,,25.9,33.3,24.0,27.4,73,85,44,68.0,1010.8,1015.5,1008.6,1011.7,18.6,25.9,2.1,16.0,99,94.7,0.0,0.1,0.1,0.0,0.1,34,93,3,48.6,24.1,24.1,24.1,24.1,5
BR_BR,Thành phố Bà Rịa - Bà Rịa - Vũng Tàu,Bà Rịa - Vũng Tàu,Bà Rịa,10.5,107.1833,2026-03-12 14:01:07,openmeteo,high,2026-03-12T21:00,,26.3,32.9,24.6,27.6,74,81,45,68.9,1010.7,1015.5,1008.5,1011.6,13.3,19.5,0.8,11.3,109,102.1,0.0,0.1,0.1,0.0,0.2,37,87,5,51.4,24.1,24.1,24.1,24.1,5
BR_VT,Thành phố Vũng Tàu - Bà Rịa - Vũng Tàu,Bà Rịa - Vũng Tàu,Vũng Tàu,10.346,107.0843,2026-03-12 14:01:07,openmeteo,high,2026-03-12T21:00,,26.3,32.9,24.6,27.6,74,81,45,68.9,1010.7,1015.5,1008.5,1011.6,13.3,19.5,0.8,11.3,109,102.1,0.0,0.1,0.1,0.0,0.2,37,87,5,51.4,24.1,24.1,24.1,24.1,5
BR_PT,Thị xã Phú Mỹ - Bà Rịa - Vũng Tàu,Bà Rịa - Vũng Tàu,Phú Mỹ,10.6,107.05,2026-03-12 14:01:08,openmeteo,high,2026-03-12T21:00,,25.8,34.6,23.9,27.6,75,89,39,68.8,1010.6,1015.6,1008.1,1011.5,12.3,21.5,0.7,9.2,128,111.4,0.0,0.9,0.1,0.1,2.2,29,100,0,52.9,24.1,24.1,23.4,24.1,5
BR_CD2,Đảo Côn Sơn - Bà Rịa - Vũng Tàu,Bà Rịa - Vũng Tàu,Côn Đảo,8.6822,106.6089,2026-03-12 14:02:05,openmeteo,high,2026-03-12T21:00,,26.1,26.9,25.6,26.1,80,84,75,79.5,1011.4,1014.9,1008.7,1011.7,28.7,34.8,17.6,27.2,75,73.6,0.0,0.0,0.0,0.0,0.0,46,95,4,47.5,24.1,24.1,24.1,24.1,5
BD_BA,Huyện Bàu Bàng - Bình Dương,Bình Dương,Bàu Bàng,11.25,106.8,2026-03-12 14:01:03,openmeteo,high,2026-03-12T21:00,,26.4,35.2,21.6,27.6,73,90,31,66.3,1010.3,1015.6,1007.4,1011.4,10.6,20.5,0.4,5.8,156,92.7,0.0,2.4,0.1,0.2,4.8,41,100,0,44.4,24.1,24.1,6.8,23.9,5
BD_BC,Huyện Bắc Tân Uyên - Bình Dương,Bình Dương,Bắc Tân Uyên,11.1667,106.8667,2026-03-12 14:01:04,openmeteo,high,2026-03-12T21:00,,26.1,35.6,21.8,27.7,73,90,32,65.9,1010.3,1015.6,1007.5,1011.4,12.4,19.3,0.4,6.0,150,125.3,0.0,1.0,0.1,0.1,3.4,20,95,0,46.2,24.1,24.1,6.8,23.9,5
BD_DH,Huyện Dầu Tiếng - Bình Dương,Bình Dương,Dầu Tiếng,11.2667,106.3667,2026-03-12 14:01:04,openmeteo,high,2026-03-12T21:00,,26.6,35.5,22.2,27.9,74,95,36,67.9,1010.0,1015.6,1007.3,1011.4,14.5,19.8,1.1,6.4,174,90.3,0.0,2.8,0.2,0.2,4.8,37,97,0,43.7,24.1,24.1,16.5,23.9,5
BD_PG,Huyện Phú Giáo - Bình Dương,Bình Dương,Phú Giáo,11.3333,106.7667,2026-03-12 14:01:04,openmeteo,high,2026-03-12T21:00,,26.5,35.3,21.4,27.6,73,91,31,66.0,1010.4,1015.6,1007.4,1011.4,8.1,18.7,0.4,5.6,148,79.1,0.0,2.1,0.1,0.2,5.8,47,99,0,44.6,24.1,24.1,6.8,23.9,5
BD_TDM,Thành phố Thủ Dầu Một - Bình Dương,Bình Dương,Thủ Dầu Một,10.9804,106.6519,2026-03-12 14:01:02,openmeteo,high,2026-03-12T21:00,,26.2,35.7,22.6,27.8,73,93,34,68.2,1010.1,1015.6,1007.3,1011.4,13.5,18.5,0.0,6.5,164,106.4,0.0,0.4,0.1,0.0,0.8,17,84,0,45.8,24.1,24.1,24.1,24.1,5
BD_BG,Thị xã Bến Cát - Bình Dương,Bình Dương,Bến Cát,11.15,106.6,2026-03-12 14:01:02,openmeteo,high,2026-03-12T21:00,,26.1,35.7,22.4,27.8,75,91,33,67.4,1010.1,1015.6,1007.3,1011.3,12.1,17.6,0.5,6.0,163,112.1,0.0,0.9,0.1,0.1,1.3,18,92,0,44.9,24.1,24.1,9.2,23.8,5
BD_DT,Thị xã Dĩ An - Bình Dương,Bình Dương,Dĩ An,10.9,106.7667,2026-03-12 14:01:03,openmeteo,high,2026-03-12T21:00,,25.8,35.4,22.9,27.7,75,91,32,68.1,1010.3,1015.5,1007.6,1011.4,12.2,18.5,0.4,7.1,156,113.7,0.0,0.3,0.1,0.0,0.9,25,91,0,49.2,24.1,24.1,24.1,24.1,5
BD_TN,Thị xã Thuận An - Bình Dương,Bình Dương,Thuận An,10.9333,106.7,2026-03-12 14:01:02,openmeteo,high,2026-03-12T21:00,,26.0,35.6,23.1,27.9,75,91,32,68.1,1010.3,1015.5,1007.6,1011.4,12.2,18.5,0.4,7.1,156,113.7,0.0,0.3,0.1,0.0,0.9,25,91,0,49.2,24.1,24.1,24.1,24.1,5
BD_TU,Thị xã Tân Uyên - Bình Dương,Bình Dương,Tân Uyên,11.0667,106.8,2026-03-12 14:01:02,openmeteo,high,2026-03-12T21:00,,26.3,35.9,22.6,28.0,75,91,33,67.4,1010.1,1015.6,1007.3,1011.3,12.1,17.6,0.5,6.0,163,112.1,0.0,0.9,0.1,0.1,1.3,18,92,0,44.9,24.1,24.1,24.1,24.1,5
BP_DX,Thành phố Đồng Xoài - Bình Phước,Bình Phước,Đồng Xoài,11.5349,106.8823,2026-03-12 14:01:56,openmeteo,high,2026-03-12T21:00,,27.2,35.6,21.5,28.0,69,91,30,62.8,1010.8,1015.7,1007.3,1011.4,6.9,16.7,0.4,5.2,81,40.5,0.0,1.2,0.1,0.1,3.4,91,94,0,45.0,24.1,24.1,11.2,24.0,5
BP_BL,Thị xã Bình Long - Bình Phước,Bình Phước,Bình Long,11.65,106.6,2026-03-12 14:01:56,openmeteo,high,2026-03-12T21:00,,26.7,35.3,21.3,28.0,74,91,34,63.7,1010.7,1015.7,1007.3,1011.3,5.9,12.5,0.0,4.8,133,20.6,0.1,2.7,0.1,0.3,6.7,93,100,0,43.6,24.1,24.1,23.4,24.1,30
BP_PL,Thị xã Phước Long - Bình Phước,Bình Phước,Phước Long,11.8333,106.9667,2026-03-12 14:01:57,openmeteo,high,2026-03-12T21:00,,26.2,35.4,21.0,27.8,61,92,31,60.5,1010.7,1015.8,1007.1,1011.5,8.8,12.5,0.7,4.7,71,30.6,0.0,0.3,0.3,0.0,0.9,43,100,0,40.3,24.1,24.1,21.7,24.1,5
BT_HD,Huyện Hàm Thuận Bắc - Bình Thuận,Bình Thuận,Hàm Thuận Bắc,11.0833,108.1167,2026-03-12 14:01:42,openmeteo,high,2026-03-12T21:00,,24.1,31.7,19.2,24.8,76,94,41,73.1,1012.1,1016.5,1009.0,1012.9,1.8,18.9,0.0,6.5,37,71.2,0.0,3.3,0.1,0.2,5.1,79,100,0,48.7,24.1,24.1,24.1,24.1,0
BT_PH,Huyện Phú Quý - Bình Thuận,Bình Thuận,Phú Quý,10.5,108.9333,2026-03-12 14:01:43,openmeteo,high,2026-03-12T21:00,,25.0,25.9,24.4,25.1,83,87,77,82.1,1011.8,1015.8,1009.4,1012.4,42.8,45.5,19.8,34.8,42,46.9,0.0,0.0,0.0,0.0,0.0,54,91,5,46.3,24.1,24.1,24.1,24.1,0
BT_PT,Thành phố Phan Thiết - Bình Thuận,Bình Thuận,Phan Thiết,10.9333,108.1,2026-03-12 14:01:42,openmeteo,high,2026-03-12T21:00,,25.4,33.4,21.2,26.5,66,87,39,66.5,1011.2,1015.9,1008.8,1012.1,8.1,25.2,1.8,10.1,69,68.8,0.0,0.3,0.1,0.0,0.7,63,94,0,45.6,24.1,24.1,24.1,24.1,5
BT_LC,Thị xã La Gi - Bình Thuận,Bình Thuận,La Gi,10.6667,107.7667,2026-03-12 14:01:41,openmeteo,high,2026-03-12T21:00,,24.9,32.8,21.3,26.3,72,89,43,69.3,1011.1,1015.8,1009.0,1012.1,14.4,24.0,3.1,13.8,86,84.2,0.0,0.2,0.2,0.0,0.2,45,92,0,44.7,24.1,24.1,24.1,24.1,0
BT_PQ2,Đảo Phú Quý - Bình Thuận,Bình Thuận,Phú Quý,10.5,108.9333,2026-03-12 14:02:05,openmeteo,high,2026-03-12T21:00,,25.0,25.9,24.4,25.1,83,87,77,82.1,1011.8,1015.8,1009.4,1012.4,42.8,45.5,19.8,34.8,42,46.9,0.0,0.0,0.0,0.0,0.0,54,91,5,46.3,24.1,24.1,24.1,24.1,0
BD_AL,Huyện An Lão - Bình Định,Bình Định,An Lão,14.5667,108.9,2026-03-12 14:01:38,openmeteo,high,2026-03-12T21:00,,20.6,29.9,18.1,21.7,93,100,57,84.9,1017.2,1021.0,1012.1,1016.8,7.2,14.0,0.5,6.1,27,12.2,0.0,0.2,0.1,0.0,1.1,97,100,0,73.5,19.3,24.1,8.4,21.5,10
BD_HV,Huyện Hoài Ân - Bình Định,Bình Định,Hoài Ân,14.35,108.9,2026-03-12 14:01:39,openmeteo,high,2026-03-12T21:00,,19.4,28.5,16.0,20.6,88,96,48,79.0,1016.6,1020.2,1012.4,1016.4,7.4,20.4,0.7,8.4,43,22.9,0.0,0.1,0.1,0.0,0.4,100,100,0,70.8,20.4,24.1,7.8,22.2,10
BD_QN,Thành phố Quy Nhơn - Bình Định,Bình Định,Quy Nhơn,13.7667,109.2333,2026-03-12 14:01:39,openmeteo,high,2026-03-12T21:00,,22.8,29.5,20.4,24.0,86,94,58,79.1,1015.4,1019.0,1011.6,1015.2,10.0,20.0,0.4,8.4,13,358.4,0.0,0.7,0.1,0.2,6.0,79,100,0,66.8,22.0,24.1,5.0,22.1,10
BL_HH,Huyện Hòa Bình - Bạc Liêu,Bạc Liêu,Hòa Bình,9.2833,105.6333,2026-03-12 14:01:33,openmeteo,high,2026-03-12T21:00,,25.4,32.8,24.0,27.4,80,87,44,69.9,1011.2,1015.1,1008.3,1011.6,13.7,27.0,7.4,16.8,93,94.2,0.0,0.2,0.2,0.0,0.2,48,100,0,54.1,24.1,24.1,24.1,24.1,5
BL_HB,Huyện Hồng Dân - Bạc Liêu,Bạc Liêu,Hồng Dân,9.55,105.4167,2026-03-12 14:01:33,openmeteo,high,2026-03-12T21:00,,25.2,33.5,23.0,27.3,80,92,43,71.3,1011.2,1015.2,1008.1,1011.5,8.3,23.0,1.1,11.7,95,98.0,0.0,0.6,0.1,0.1,1.7,10,100,0,55.4,24.1,24.1,14.3,24.0,5
BL_PT,Huyện Phước Long - Bạc Liêu,Bạc Liêu,Phước Long,9.4333,105.4667,2026-03-12 14:01:33,openmeteo,high,2026-03-12T21:00,,25.3,32.8,23.5,27.4,80,90,43,70.1,1011.2,1015.1,1008.1,1011.5,10.5,24.9,5.7,14.2,96,95.4,0.0,0.3,0.1,0.0,0.5,35,100,2,56.2,24.1,24.1,14.3,24.0,5
BL_VL,Huyện Vĩnh Lợi - Bạc Liêu,Bạc Liêu,Vĩnh Lợi,9.35,105.5667,2026-03-12 14:01:33,openmeteo,high,2026-03-12T21:00,,25.4,32.8,24.0,27.4,80,87,44,69.9,1011.2,1015.1,1008.3,1011.6,13.7,27.0,7.4,16.8,93,94.2,0.0,0.2,0.2,0.0,0.2,48,100,0,54.1,24.1,24.1,24.1,24.1,5
BL_DD,Huyện Đông Hải - Bạc Liêu,Bạc Liêu,Đông Hải,9.1667,105.4333,2026-03-12 14:01:33,openmeteo,high,2026-03-12T21:00,,25.3,32.3,24.0,27.1,82,89,48,73.1,1011.2,1015.0,1008.4,1011.6,11.9,28.7,6.1,17.1,88,94.2,0.0,0.2,0.1,0.0,0.8,45,97,3,56.7,24.1,24.1,24.1,24.1,5
BL_BL,Thành phố Bạc Liêu - Bạc Liêu,Bạc Liêu,Bạc Liêu,9.2833,105.7167,2026-03-12 14:01:32,openmeteo,high,2026-03-12T21:00,,25.7,32.6,24.7,27.5,79,85,45,69.7,1011.3,1015.1,1008.6,1011.7,16.6,30.3,10.4,20.0,89,91.1,0.0,0.0,0.0,0.0,0.0,54,100,2,51.0,24.1,24.1,24.1,24.1,5
BL_GD,Thị xã Giá Rai - Bạc Liêu,Bạc Liêu,Giá Rai,9.2333,105.4667,2026-03-12 14:01:33,openmeteo,high,2026-03-12T21:00,,24.9,32.6,23.3,27.1,83,91,45,72.4,1011.2,1015.0,1008.3,1011.5,8.6,23.8,5.5,13.2,90,95.0,0.0,0.9,0.1,0.1,2.2,35,100,0,55.7,24.1,24.1,24.1,24.1,0
BG_LN,Huyện Lạng Giang - Bắc Giang,Bắc Giang,Lạng Giang,21.35,106.25,2026-03-12 14:01:56,openmeteo,high,2026-03-12T21:00,,19.9,27.8,17.3,21.6,79,94,46,79.4,1018.8,1022.6,1010.1,1017.1,5.4,15.2,0.4,5.8,176,143.7,0.0,0.6,0.1,0.1,2.6,90,100,37,85.8,24.1,24.1,16.2,24.0,0
BG_YL,Huyện Yên Thế - Bắc Giang,Bắc Giang,Yên Thế,21.5167,106.1167,2026-03-12 14:01:55,openmeteo,high,2026-03-12T21:00,,19.8,27.1,16.5,21.5,81,97,46,79.8,1018.8,1022.6,1010.1,1017.2,5.7,15.0,0.4,5.8,162,136.4,0.0,1.1,0.1,0.2,4.4,83,100,45,85.8,24.1,24.1,24.1,24.1,0
BG_BG,Thành phố Bắc Giang - Bắc Giang,Bắc Giang,Bắc Giang,21.2667,106.2,2026-03-12 14:01:55,openmeteo,high,2026-03-12T21:00,,20.1,28.3,18.0,21.7,80,95,46,81.0,1018.8,1022.5,1010.0,1017.1,6.5,16.3,0.5,6.9,174,133.3,0.0,0.5,0.1,0.1,3.0,85,100,34,86.5,24.1,24.1,16.2,24.0,0
BK_BB,Huyện Ba Bể - Bắc Kạn,Bắc Kạn,Ba Bể,22.4167,105.75,2026-03-12 14:01:48,openmeteo,high,2026-03-12T21:00,,17.7,24.5,14.8,19.9,77,94,53,80.5,1019.6,1022.9,1010.9,1017.6,4.8,14.0,1.9,5.6,117,169.3,0.0,0.1,0.1,0.0,1.2,75,100,44,90.3,24.1,24.1,6.8,21.4,0
BK_PT,Huyện Pác Nặm - Bắc Kạn,Bắc Kạn,Pác Nặm,22.6333,105.6667,2026-03-12 14:01:49,openmeteo,high,2026-03-12T21:00,,17.7,24.6,14.6,19.2,79,95,50,81.9,1019.6,1022.9,1010.4,1017.5,3.4,13.9,1.8,4.8,122,171.4,0.0,0.6,0.3,0.1,2.7,78,100,52,92.1,24.1,24.1,0.1,18.1,0
BK_BK,Thành phố Bắc Kạn - Bắc Kạn,Bắc Kạn,Bắc Kạn,22.15,105.8333,2026-03-12 14:01:48,openmeteo,high,2026-03-12T21:00,,18.2,23.8,14.6,19.6,75,94,55,82.6,1019.5,1023.1,1011.2,1017.8,3.9,13.2,0.4,5.1,56,154.5,0.0,0.3,0.1,0.1,2.8,65,100,44,91.3,24.1,24.1,1.4,23.5,0
BN_YL,Huyện Yên Phong - Bắc Ninh,Bắc Ninh,Yên Phong,21.2,105.95,2026-03-12 14:01:53,openmeteo,high,2026-03-12T21:00,,20.0,28.6,17.7,21.6,81,96,49,81.0,1018.8,1022.5,1009.7,1017.1,7.1,17.2,0.7,7.5,165,121.4,0.0,0.5,0.1,0.1,2.7,90,100,45,87.7,24.1,24.1,20.7,24.1,0
BN_BN,Thành phố Bắc Ninh - Bắc Ninh,Bắc Ninh,Bắc Ninh,21.1861,106.0764,2026-03-12 14:01:52,openmeteo,high,2026-03-12T21:00,,19.7,28.4,17.6,21.5,81,97,48,81.4,1018.8,1022.5,1009.9,1017.1,7.3,17.8,0.7,7.9,169,131.9,0.0,0.5,0.1,0.1,3.1,87,100,32,86.5,24.1,24.1,20.7,24.1,0
BN_TS,Thành phố Từ Sơn - Bắc Ninh,Bắc Ninh,Từ Sơn,21.1167,105.9667,2026-03-12 14:01:53,openmeteo,high,2026-03-12T21:00,,19.7,28.4,17.6,21.5,81,97,48,81.4,1018.8,1022.5,1009.9,1017.1,7.3,17.8,0.7,7.9,169,131.9,0.0,0.5,0.1,0.1,3.1,87,100,32,86.5,24.1,24.1,18.3,24.0,0
BT_BL,Huyện Ba Tri - Bến Tre,Bến Tre,Ba Tri,10.0667,106.6,2026-03-12 14:01:21,openmeteo,high,2026-03-12T21:00,,25.6,32.8,23.4,27.3,77,90,46,70.3,1011.2,1015.4,1008.7,1011.7,15.7,24.1,5.4,14.8,106,96.7,0.0,0.0,0.0,0.0,0.0,49,90,4,53.4,24.1,24.1,24.1,24.1,5
BT_BH,Huyện Bình Đại - Bến Tre,Bến Tre,Bình Đại,10.1833,106.7,2026-03-12 14:01:21,openmeteo,high,2026-03-12T21:00,,25.6,32.8,23.4,27.3,77,90,46,70.3,1011.2,1015.4,1008.7,1011.7,15.7,24.1,5.4,14.8,106,96.7,0.0,0.0,0.0,0.0,0.0,49,90,4,53.4,24.1,24.1,24.1,24.1,5
BT_CL,Huyện Châu Thành - Bến Tre,Bến Tre,Châu Thành,10.3,106.2667,2026-03-12 14:01:22,openmeteo,high,2026-03-12T21:00,,25.9,32.7,23.9,27.6,77,91,45,69.6,1011.2,1015.6,1008.3,1011.6,15.6,21.8,2.8,12.9,116,99.2,0.0,0.1,0.1,0.0,0.3,51,95,4,55.2,24.1,24.1,24.1,24.1,5
BT_CT,Huyện Chợ Lách - Bến Tre,Bến Tre,Chợ Lách,10.2667,106.15,2026-03-12 14:01:22,openmeteo,high,2026-03-12T21:00,,25.5,33.4,23.4,27.4,78,93,43,70.1,1011.1,1015.5,1008.1,1011.5,14.0,21.5,1.6,11.3,119,100.1,0.0,0.3,0.1,0.0,1.0,49,95,0,55.8,24.1,24.1,24.1,24.1,5
BT_GD,Huyện Giồng Trôm - Bến Tre,Bến Tre,Giồng Trôm,10.1667,106.4667,2026-03-12 14:01:23,openmeteo,high,2026-03-12T21:00,,25.8,32.8,23.7,27.4,77,90,45,70.1,1011.2,1015.5,1008.5,1011.7,15.5,22.5,4.3,13.5,112,98.0,0.0,0.0,0.0,0.0,0.0,53,88,0,52.2,24.1,24.1,24.1,24.1,5
BT_MB,Huyện Mỏ Cày Bắc - Bến Tre,Bến Tre,Mỏ Cày Bắc,10.1333,106.3,2026-03-12 14:01:22,openmeteo,high,2026-03-12T21:00,,25.4,33.3,23.3,27.4,78,93,43,69.7,1011.2,1015.5,1008.2,1011.6,13.4,22.1,4.0,12.3,114,98.6,0.0,0.2,0.1,0.0,0.8,52,93,7,55.7,24.1,24.1,24.1,24.1,5
BT_MN,Huyện Mỏ Cày Nam - Bến Tre,Bến Tre,Mỏ Cày Nam,10.0667,106.3333,2026-03-12 14:01:23,openmeteo,high,2026-03-12T21:00,,25.7,33.2,23.4,27.5,77,91,42,69.2,1011.2,1015.5,1008.5,1011.6,15.0,22.1,4.7,13.6,111,98.6,0.0,0.0,0.0,0.0,0.0,55,94,0,53.9,24.1,24.1,24.1,24.1,5
BT_TP,Huyện Thạnh Phú - Bến Tre,Bến Tre,Thạnh Phú,9.9333,106.5333,2026-03-12 14:01:23,openmeteo,high,2026-03-12T21:00,,25.9,32.7,24.9,27.4,76,85,45,69.5,1011.3,1015.3,1008.8,1011.8,17.4,26.4,8.7,17.7,97,92.7,0.0,0.0,0.0,0.0,0.0,48,88,0,51.8,24.1,24.1,24.1,24.1,5
BT_BT,Thành phố Bến Tre - Bến Tre,Bến Tre,Bến Tre,10.2333,106.3833,2026-03-12 14:01:21,openmeteo,high,2026-03-12T21:00,,25.9,32.7,23.9,27.6,77,91,45,69.6,1011.2,1015.6,1008.3,1011.6,15.6,21.8,2.8,12.9,116,99.2,0.0,0.1,0.1,0.0,0.3,51,95,4,55.2,24.1,24.1,24.1,24.1,5
CB_BL,Huyện Bảo Lâm - Cao Bằng,Cao Bằng,Bảo Lâm,22.8667,105.5,2026-03-12 14:01:47,openmeteo,high,2026-03-12T21:00,,18.4,26.0,14.8,19.7,75,96,47,79.3,1019.5,1023.4,1009.4,1017.2,2.4,14.5,0.4,6.2,207,181.3,0.0,0.3,0.1,0.1,1.4,88,100,64,92.9,24.1,24.1,0.2,20.7,0
CB_BC,Huyện Bảo Lạc - Cao Bằng,Cao Bằng,Bảo Lạc,22.95,105.7333,2026-03-12 14:01:47,openmeteo,high,2026-03-12T21:00,,17.8,26.9,14.1,20.1,70,92,46,75.7,1019.8,1023.3,1009.2,1017.0,4.7,19.4,0.8,6.5,94,189.4,0.0,0.3,0.1,0.1,2.1,56,100,38,87.5,24.1,24.1,12.0,23.2,0
CB_CB,Thành phố Cao Bằng - Cao Bằng,Cao Bằng,Cao Bằng,22.6667,106.25,2026-03-12 14:01:47,openmeteo,high,2026-03-12T21:00,,18.2,26.0,13.8,19.9,68,94,51,78.4,1019.6,1023.3,1010.0,1017.4,1.1,16.6,0.5,5.5,180,168.1,0.0,0.1,0.1,0.0,0.3,37,100,27,83.1,24.1,24.1,13.2,23.2,0
CM_CM,Huyện Cái Nước - Cà Mau,Cà Mau,Cái Nước,9.0,105.0333,2026-03-12 14:01:16,openmeteo,high,2026-03-12T21:00,,25.0,32.2,23.5,26.9,84,94,49,74.7,1011.2,1014.9,1008.4,1011.5,9.0,24.5,3.9,13.3,90,94.3,0.0,0.4,0.1,0.1,1.6,59,91,3,57.4,24.1,24.1,24.1,24.1,0
CM_NG,Huyện Ngọc Hiển - Cà Mau,Cà Mau,Ngọc Hiển,8.6667,105.05,2026-03-12 14:01:17,openmeteo,high,2026-03-12T21:00,,25.9,30.5,25.2,27.1,80,85,55,73.6,1011.2,1015.0,1008.7,1011.6,15.9,30.8,8.0,19.3,86,88.2,0.0,0.0,0.0,0.0,0.0,57,85,0,47.8,24.1,24.1,24.1,24.1,5
CM_NC,Huyện Năm Căn - Cà Mau,Cà Mau,Năm Căn,8.75,105.0,2026-03-12 14:01:16,openmeteo,high,2026-03-12T21:00,,25.9,31.6,24.6,27.3,79,89,51,72.8,1011.2,1014.8,1008.4,1011.5,14.1,30.3,6.2,17.5,87,90.6,0.0,0.0,0.0,0.0,0.0,60,93,0,50.6,24.1,24.1,24.1,24.1,5
CM_PT,Huyện Phú Tân - Cà Mau,Cà Mau,Phú Tân,8.8833,104.8833,2026-03-12 14:01:17,openmeteo,high,2026-03-12T21:00,,26.4,30.5,25.3,27.2,80,88,56,75.3,1011.3,1014.7,1008.3,1011.5,19.9,38.2,6.5,22.3,86,91.2,0.0,1.6,0.1,0.2,3.8,64,92,0,54.1,24.1,24.1,24.1,24.1,5
CM_TV,Huyện Thới Bình - Cà Mau,Cà Mau,Thới Bình,9.35,105.1,2026-03-12 14:01:18,openmeteo,high,2026-03-12T21:00,,25.0,32.6,22.7,26.7,84,95,46,75.1,1011.3,1015.1,1008.2,1011.5,6.4,21.7,0.5,10.4,106,100.1,0.0,4.0,0.1,0.5,10.9,27,100,3,56.2,24.1,24.1,16.0,24.0,0
CM_TR,Huyện Trần Văn Thời - Cà Mau,Cà Mau,Trần Văn Thời,9.0833,104.9667,2026-03-12 14:01:18,openmeteo,high,2026-03-12T21:00,,25.5,32.3,23.6,26.9,84,93,48,76.3,1011.3,1014.9,1008.4,1011.5,11.7,27.5,1.3,14.5,101,93.6,0.0,2.3,0.1,0.3,7.9,58,100,3,57.5,24.1,24.1,24.1,24.1,5
CM_UM,Huyện U Minh - Cà Mau,Cà Mau,U Minh,9.4,104.9833,2026-03-12 14:01:17,openmeteo,high,2026-03-12T21:00,,26.4,32.3,23.8,27.1,83,92,48,75.1,1011.2,1015.0,1008.4,1011.5,7.7,26.5,0.5,12.9,127,97.7,0.0,2.3,0.1,0.4,9.0,33,100,6,56.3,24.1,24.1,8.7,24.0,5
CM_DH,Huyện Đầm Dơi - Cà Mau,Cà Mau,Đầm Dơi,8.9833,105.2,2026-03-12 14:01:16,openmeteo,high,2026-03-12T21:00,,25.5,31.6,24.3,27.1,82,89,52,73.4,1011.2,1015.0,1008.5,1011.6,13.4,29.5,4.7,17.5,85,91.5,0.0,0.1,0.1,0.0,0.1,58,86,0,56.5,24.1,24.1,24.1,24.1,5
CM_TP,Thành phố Cà Mau - Cà Mau,Cà Mau,Cà Mau,9.1769,105.1521,2026-03-12 14:01:16,openmeteo,high,2026-03-12T21:00,,25.2,32.4,23.5,26.8,83,93,47,75.3,1011.2,1015.0,1008.3,1011.5,9.0,23.3,1.5,12.7,92,95.9,0.0,2.1,0.1,0.3,6.8,47,98,18,58.3,24.1,24.1,24.1,24.1,5
CT_CC,Huyện Cờ Đỏ - Cần Thơ,Cần Thơ,Cờ Đỏ,10.1,105.4333,2026-03-12 14:00:37,openmeteo,high,2026-03-12T21:00,,25.9,33.8,22.9,27.0,81,93,40,73.6,1011.0,1015.4,1008.0,1011.5,8.4,17.1,1.3,8.8,137,99.6,0.0,1.3,0.1,0.3,6.5,65,92,0,54.8,24.1,24.1,24.1,24.1,5
CT_PT,Huyện Phong Điền - Cần Thơ,Cần Thơ,Phong Điền,10.25,105.6667,2026-03-12 14:00:38,openmeteo,high,2026-03-12T21:00,,25.4,34.3,23.1,27.3,79,92,39,71.8,1011.0,1015.4,1008.0,1011.5,11.5,18.7,1.0,9.2,129,100.9,0.0,1.5,0.1,0.2,5.7,58,90,0,56.2,24.1,24.1,24.1,24.1,5
CT_TN,Huyện Thới Lai - Cần Thơ,Cần Thơ,Thới Lai,10.0667,105.55,2026-03-12 14:00:38,openmeteo,high,2026-03-12T21:00,,25.8,33.8,22.9,27.0,81,93,40,73.6,1011.0,1015.4,1008.0,1011.5,8.4,17.1,1.3,8.8,137,99.6,0.0,1.3,0.1,0.3,6.5,65,92,0,54.8,24.1,24.1,24.1,24.1,5
CT_VT,Huyện Vĩnh Thạnh - Cần Thơ,Cần Thơ,Vĩnh Thạnh,10.2167,105.4,2026-03-12 14:00:37,openmeteo,high,2026-03-12T21:00,,26.0,34.1,22.9,27.3,82,92,40,72.2,1010.9,1015.5,1007.8,1011.5,7.0,15.0,1.3,7.5,159,103.3,0.0,0.4,0.1,0.1,2.8,76,87,0,55.0,24.1,24.1,10.8,24.0,5
CT_BT,Quận Bình Thủy - Cần Thơ,Cần Thơ,Bình Thủy,10.0816,105.7378,2026-03-12 14:00:37,openmeteo,high,2026-03-12T21:00,,25.5,34.1,23.2,27.4,79,92,40,70.7,1011.0,1015.5,1008.2,1011.5,12.8,18.9,2.2,10.0,122,100.8,0.0,1.6,0.1,0.1,3.1,38,97,0,57.9,24.1,24.1,24.1,24.1,5
CT_CR,Quận Cái Răng - Cần Thơ,Cần Thơ,Cái Răng,10.0,105.7667,2026-03-12 14:00:37,openmeteo,high,2026-03-12T21:00,,25.5,34.1,23.2,27.3,78,92,40,71.0,1011.1,1015.4,1008.3,1011.5,11.6,19.1,2.9,10.4,116,97.7,0.0,0.7,0.2,0.1,2.0,45,98,0,56.6,24.1,24.1,24.1,24.1,5
CT_NK,Quận Ninh Kiều - Cần Thơ,Cần Thơ,Ninh Kiều,10.0452,105.7469,2026-03-12 14:00:36,openmeteo,high,2026-03-12T21:00,,25.5,34.1,23.2,27.3,78,92,40,71.0,1011.1,1015.4,1008.3,1011.5,11.6,19.1,2.9,10.4,116,97.7,0.0,0.7,0.2,0.1,2.0,45,98,0,56.6,24.1,24.1,24.1,24.1,5
CT_TL,Quận Thốt Nốt - Cần Thơ,Cần Thơ,Thốt Nốt,10.2667,105.5333,2026-03-12 14:00:38,openmeteo,high,2026-03-12T21:00,,25.8,34.3,23.0,27.3,78,92,38,72.0,1010.9,1015.5,1008.0,1011.5,10.2,17.7,0.5,8.5,138,102.6,0.0,1.2,0.1,0.2,3.7,67,91,0,56.5,24.1,24.1,10.8,24.0,5
CT_OT,Quận Ô Môn - Cần Thơ,Cần Thơ,Ô Môn,10.1167,105.6333,2026-03-12 14:00:36,openmeteo,high,2026-03-12T21:00,,25.3,34.2,23.1,27.2,79,93,40,71.9,1011.0,1015.4,1008.1,1011.5,10.6,18.9,1.8,9.6,125,99.3,0.0,1.5,0.1,0.2,5.5,50,93,0,56.0,24.1,24.1,24.1,24.1,5
GL_CP,Huyện Chư Prông - Gia Lai,Gia Lai,Chư Prông,13.5833,107.8333,2026-03-12 14:00:56,openmeteo,high,2026-03-12T21:00,,22.7,34.9,19.7,25.6,72,82,32,59.0,1013.2,1017.7,1008.7,1013.4,16.2,27.8,5.5,15.4,89,85.3,0.0,0.0,0.0,0.0,0.0,0,99,0,33.3,24.1,24.1,24.1,24.1,0
GL_CH,Huyện Chư Păh - Gia Lai,Gia Lai,Chư Păh,14.1667,107.9333,2026-03-12 14:00:56,openmeteo,high,2026-03-12T21:00,,19.7,29.9,17.1,22.0,72,87,32,63.5,1014.5,1019.0,1009.7,1014.6,12.2,20.9,0.5,10.0,45,48.4,0.0,0.0,0.0,0.0,0.0,54,97,0,50.5,24.1,24.1,24.1,24.1,0
GL_CS,Huyện Chư Sê - Gia Lai,Gia Lai,Chư Sê,13.75,108.0833,2026-03-12 14:00:57,openmeteo,high,2026-03-12T21:00,,19.5,30.5,16.9,22.0,78,85,37,66.0,1014.4,1018.7,1010.3,1014.6,16.1,28.8,8.4,16.0,70,76.2,0.0,0.0,0.0,0.0,0.0,7,95,0,38.9,24.1,24.1,24.1,24.1,0
GL_IA,Huyện Ia Grai - Gia Lai,Gia Lai,Ia Grai,13.9833,107.75,2026-03-12 14:00:57,openmeteo,high,2026-03-12T21:00,,24.0,33.8,18.9,25.9,64,84,32,59.0,1012.9,1017.8,1008.7,1013.2,7.3,17.7,1.0,7.0,81,88.4,0.0,0.1,0.1,0.0,0.1,0,99,0,40.4,24.1,24.1,24.1,24.1,0
GL_KB,Huyện KBang - Gia Lai,Gia Lai,KBang,14.35,108.5,2026-03-12 14:00:58,openmeteo,high,2026-03-12T21:00,,17.3,27.0,14.3,18.7,88,99,47,80.5,1017.0,1020.8,1012.3,1016.9,11.5,22.5,2.5,10.7,51,58.9,0.0,0.0,0.0,0.0,0.0,91,100,0,72.4,10.5,24.1,0.1,19.5,10
GL_KR,Huyện Krông Pa - Gia Lai,Gia Lai,Krông Pa,13.2167,108.6667,2026-03-12 14:00:58,openmeteo,high,2026-03-12T21:00,,20.3,30.3,17.7,22.0,83,94,45,75.6,1015.3,1019.3,1011.0,1015.3,8.0,22.6,4.0,10.0,82,92.4,0.0,0.7,0.1,0.0,1.1,83,100,0,61.4,24.1,24.1,24.1,24.1,0
GL_KN,Huyện Kông Chro - Gia Lai,Gia Lai,Kông Chro,13.7167,108.5167,2026-03-12 14:00:58,openmeteo,high,2026-03-12T21:00,,20.5,31.8,18.8,22.8,79,82,36,66.6,1014.4,1018.7,1010.1,1014.7,15.5,25.8,5.2,15.2,68,70.1,0.0,0.0,0.0,0.0,0.0,47,95,0,43.2,24.1,24.1,24.1,24.1,0
GL_MY,Huyện Mang Yang - Gia Lai,Gia Lai,Mang Yang,13.9833,108.25,2026-03-12 14:00:58,openmeteo,high,2026-03-12T21:00,,20.3,31.2,16.9,22.5,76,89,36,66.8,1014.7,1018.9,1010.5,1014.9,10.7,23.9,2.9,11.2,57,66.9,0.0,0.0,0.0,0.0,0.0,27,97,0,42.0,24.1,24.1,24.1,24.1,0
GL_PG,Huyện Phú Thiện - Gia Lai,Gia Lai,Phú Thiện,13.5333,108.3,2026-03-12 14:00:58,openmeteo,high,2026-03-12T21:00,,21.8,34.0,20.0,24.6,77,83,33,64.5,1013.9,1018.2,1009.0,1014.0,24.1,32.2,10.6,21.0,76,73.5,0.0,0.0,0.0,0.0,0.0,30,100,0,41.2,24.1,24.1,18.7,24.0,0
GL_DP,Huyện Đăk Pơ - Gia Lai,Gia Lai,Đăk Pơ,14.0,108.5,2026-03-12 14:00:57,openmeteo,high,2026-03-12T21:00,,18.9,29.1,17.2,20.8,84,87,40,72.8,1015.6,1019.5,1011.4,1015.7,16.3,26.6,5.9,15.1,55,59.6,0.0,0.0,0.0,0.0,0.0,72,99,0,58.5,24.1,24.1,6.3,23.7,0
GL_DC,Huyện Đăk Đoa - Gia Lai,Gia Lai,Đăk Đoa,14.1167,108.1167,2026-03-12 14:00:57,openmeteo,high,2026-03-12T21:00,,20.3,31.1,17.1,22.4,73,84,30,64.1,1014.8,1019.0,1009.9,1014.9,13.6,23.0,1.6,10.7,50,59.4,0.0,0.0,0.0,0.0,0.0,36,98,0,45.6,24.1,24.1,24.1,24.1,0
GL_DA,Huyện Đức Cơ - Gia Lai,Gia Lai,Đức Cơ,13.7833,107.6667,2026-03-12 14:00:57,openmeteo,high,2026-03-12T21:00,,23.8,34.5,17.7,25.9,66,92,30,58.2,1012.7,1017.7,1008.3,1012.9,10.3,18.5,0.5,8.1,115,109.6,0.0,0.1,0.1,0.0,0.1,5,100,0,38.3,24.1,24.1,24.1,24.1,0
GL_PC,Thành phố Pleiku - Gia Lai,Gia Lai,Pleiku,13.9833,108.0,2026-03-12 14:00:56,openmeteo,high,2026-03-12T21:00,,20.5,31.1,17.8,23.0,71,79,31,60.8,1014.1,1018.5,1009.7,1014.3,18.3,25.3,1.5,14.3,58,70.0,0.0,0.0,0.0,0.0,0.0,20,97,0,39.7,24.1,24.1,24.1,24.1,0
GL_AD,Thị xã An Khê - Gia Lai,Gia Lai,An Khê,14.0,108.6833,2026-03-12 14:00:55,openmeteo,high,2026-03-12T21:00,,19.5,30.2,17.0,21.5,85,90,38,71.9,1015.9,1019.8,1011.5,1015.8,12.6,26.3,3.9,13.2,53,49.7,0.0,0.0,0.0,0.0,0.0,67,100,0,56.1,24.1,24.1,16.0,24.0,0
GL_AY,Thị xã Ayun Pa - Gia Lai,Gia Lai,Ayun Pa,13.3833,108.4333,2026-03-12 14:00:56,openmeteo,high,2026-03-12T21:00,,22.9,34.2,20.3,25.1,74,89,35,66.2,1014.4,1018.6,1009.3,1014.4,14.2,24.1,3.8,13.1,66,70.6,0.0,0.0,0.0,0.0,0.0,60,95,0,51.0,24.1,24.1,24.1,24.1,0
HG_MK,Huyện Mèo Vạc - Hà Giang,Hà Giang,Mèo Vạc,23.1528,105.4069,2026-03-12 14:01:58,openmeteo,high,2026-03-12T21:00,,12.7,21.2,10.6,14.0,70,100,59,82.5,1020.1,1023.6,1009.8,1017.5,3.2,13.2,0.4,5.1,63,127.4,0.0,0.3,0.1,0.1,2.5,69,100,50,88.8,24.1,24.1,0.1,16.8,0
HG_DV,Huyện Đồng Văn - Hà Giang,Hà Giang,Đồng Văn,23.2547,105.25,2026-03-12 14:01:58,openmeteo,high,2026-03-12T21:00,,10.7,18.5,9.0,12.3,75,99,70,87.0,1020.7,1024.0,1011.1,1018.2,5.9,20.7,2.4,9.5,101,173.6,0.0,0.1,0.1,0.0,0.8,62,100,51,88.8,24.1,24.1,0.0,11.4,0
HG_HG,Thành phố Hà Giang - Hà Giang,Hà Giang,Hà Giang,22.8233,104.9836,2026-03-12 14:01:58,openmeteo,high,2026-03-12T21:00,,16.0,24.1,14.7,17.7,94,100,67,88.9,1020.3,1023.5,1010.3,1017.7,2.3,12.8,0.0,6.2,162,150.7,0.0,0.3,0.1,0.1,2.7,89,100,51,89.8,24.1,24.1,0.3,21.7,10
HNA_DT,Huyện Duy Tiên - Hà Nam,Hà Nam,Duy Tiên,20.6333,105.9667,2026-03-12 14:01:58,openmeteo,high,2026-03-12T21:00,,19.0,28.6,17.7,21.3,85,99,53,84.0,1018.9,1022.5,1009.8,1017.1,5.4,18.7,1.1,7.6,160,135.6,0.0,0.6,0.1,0.1,2.3,63,100,22,84.4,24.1,24.1,13.8,23.9,0
HNA_KB,Huyện Kim Bảng - Hà Nam,Hà Nam,Kim Bảng,20.5667,105.85,2026-03-12 14:02:00,openmeteo,high,2026-03-12T21:00,,19.3,28.6,17.4,21.3,82,99,52,82.1,1018.9,1022.5,1009.8,1017.1,3.8,18.2,0.5,6.6,163,142.8,0.0,0.6,0.1,0.1,1.5,82,100,32,82.9,24.1,24.1,12.7,23.8,0
HNA_PL,Thành phố Phủ Lý - Hà Nam,Hà Nam,Phủ Lý,20.5411,105.9139,2026-03-12 14:01:59,openmeteo,high,2026-03-12T21:00,,19.5,28.5,17.9,21.7,83,98,52,81.7,1019.0,1022.5,1010.0,1017.1,2.7,15.9,0.0,5.6,157,148.3,0.0,0.1,0.1,0.0,0.5,91,100,23,83.7,24.1,24.1,15.6,23.9,0
HN_BG,Huyện Ba Vì - Hà Nội,Hà Nội,Ba Vì,21.1992,105.4239,2026-03-12 14:00:23,openmeteo,high,2026-03-12T21:00,,20.1,28.6,18.4,21.8,86,98,51,82.0,1018.4,1022.6,1009.3,1016.7,1.1,17.2,0.0,8.6,180,121.3,0.0,0.2,0.2,0.0,0.2,66,100,7,82.3,24.1,24.1,18.9,24.0,10
HN_CM,Huyện Chương Mỹ - Hà Nội,Hà Nội,Chương Mỹ,20.8964,105.7039,2026-03-12 14:00:20,openmeteo,high,2026-03-12T21:00,,20.0,29.1,17.9,21.5,86,98,55,81.2,1018.8,1022.7,1009.5,1017.0,5.3,20.5,0.4,7.8,118,134.5,0.0,0.6,0.1,0.0,1.2,89,100,2,80.8,24.1,24.1,15.8,23.9,10
HN_GL,Huyện Gia Lâm - Hà Nội,Hà Nội,Gia Lâm,21.0408,105.95,2026-03-12 14:00:23,openmeteo,high,2026-03-12T21:00,,20.0,28.3,18.1,21.6,83,97,50,81.1,1018.8,1022.5,1009.8,1017.0,8.1,18.7,0.5,8.9,159,131.5,0.0,0.4,0.1,0.1,1.7,88,100,32,86.5,24.1,24.1,18.3,24.0,0
HN_HĐ,Huyện Hoài Đức - Hà Nội,Hà Nội,Hoài Đức,21.0392,105.7108,2026-03-12 14:00:20,openmeteo,high,2026-03-12T21:00,,20.1,28.9,18.0,21.7,84,99,50,81.6,1018.7,1022.6,1009.5,1016.9,7.4,19.0,0.7,8.8,129,136.1,0.0,0.4,0.3,0.0,0.7,80,100,17,82.8,24.1,24.1,15.8,23.9,0
HN_MT,Huyện Mê Linh - Hà Nội,Hà Nội,Mê Linh,21.1753,105.7219,2026-03-12 14:00:24,openmeteo,high,2026-03-12T21:00,,20.6,29.1,18.0,21.7,88,99,51,82.2,1018.6,1022.6,1009.3,1016.8,6.8,20.1,0.5,9.8,122,127.3,0.0,0.7,0.3,0.1,1.3,92,100,33,84.0,24.1,24.1,17.8,24.0,10
HN_MD,Huyện Mỹ Đức - Hà Nội,Hà Nội,Mỹ Đức,20.6472,105.7194,2026-03-12 14:00:22,openmeteo,high,2026-03-12T21:00,,18.3,27.7,16.7,20.3,88,99,54,81.4,1019.1,1022.8,1009.9,1017.3,2.6,17.3,0.0,6.2,164,151.2,0.0,0.3,0.1,0.0,1.2,97,100,36,86.8,24.1,24.1,13.5,23.9,10
HN_ML,Huyện Mỹ Đức - Hà Nội,Hà Nội,Mỹ Đức,20.6472,105.7194,2026-03-12 14:00:24,openmeteo,high,2026-03-12T21:00,,18.3,27.7,16.7,20.3,88,99,54,81.4,1019.1,1022.8,1009.9,1017.3,2.6,17.3,0.0,6.2,164,151.2,0.0,0.3,0.1,0.0,1.2,97,100,36,86.8,24.1,24.1,13.5,23.9,10
HN_PX,Huyện Phú Xuyên - Hà Nội,Hà Nội,Phú Xuyên,20.7392,105.9139,2026-03-12 14:00:21,openmeteo,high,2026-03-12T21:00,,19.2,28.6,17.8,21.4,86,99,54,83.1,1018.8,1022.6,1009.6,1017.0,6.8,20.2,0.4,8.4,155,143.3,0.0,0.5,0.1,0.0,1.1,70,100,35,84.9,24.1,24.1,13.8,23.9,10
HN_PH,Huyện Phú Xuyên - Hà Nội,Hà Nội,Phú Xuyên,20.7392,105.9139,2026-03-12 14:00:24,openmeteo,high,2026-03-12T21:00,,19.2,28.6,17.8,21.4,86,99,54,83.1,1018.8,1022.6,1009.6,1017.0,6.8,20.2,0.4,8.4,155,143.3,0.0,0.5,0.1,0.0,1.1,70,100,35,84.9,24.1,24.1,13.8,23.9,10
HN_PT,Huyện Phúc Thọ - Hà Nội,Hà Nội,Phúc Thọ,21.1031,105.5514,2026-03-12 14:00:23,openmeteo,high,2026-03-12T21:00,,18.7,28.8,17.6,21.4,92,98,55,81.7,1018.6,1022.7,1009.2,1016.8,3.6,18.0,0.0,8.3,135,123.8,0.0,0.8,0.1,0.1,2.1,86,100,41,84.7,24.1,24.1,15.3,23.9,10
HN_QO,Huyện Quốc Oai - Hà Nội,Hà Nội,Quốc Oai,20.9956,105.6119,2026-03-12 14:00:20,openmeteo,high,2026-03-12T21:00,,18.9,28.7,17.0,21.0,91,100,55,81.9,1018.7,1022.8,1009.4,1016.9,3.8,20.0,0.5,8.0,107,127.1,0.0,1.1,0.4,0.1,1.5,90,100,33,85.0,24.1,24.1,15.3,23.9,10
HN_SL,Huyện Sóc Sơn - Hà Nội,Hà Nội,Sóc Sơn,21.2578,105.8489,2026-03-12 14:00:22,openmeteo,high,2026-03-12T21:00,,20.5,28.9,17.7,21.7,82,97,48,80.9,1018.7,1022.5,1009.6,1017.0,8.1,18.0,0.0,8.8,159,125.6,0.0,1.0,0.1,0.1,1.5,91,100,41,86.6,24.1,24.1,17.8,24.0,0
HN_TO,Huyện Thanh Oai - Hà Nội,Hà Nội,Thanh Oai,20.8556,105.7722,2026-03-12 14:00:21,openmeteo,high,2026-03-12T21:00,,20.0,29.1,17.9,21.5,86,98,55,81.2,1018.8,1022.7,1009.5,1017.0,5.3,20.5,0.4,7.8,118,134.5,0.0,0.6,0.1,0.0,1.2,89,100,2,80.8,24.1,24.1,13.5,23.9,10
HN_TT2,Huyện Thường Tín - Hà Nội,Hà Nội,Thường Tín,20.87,105.8583,2026-03-12 14:00:22,openmeteo,high,2026-03-12T21:00,,19.7,28.8,17.9,21.6,85,99,51,81.9,1018.8,1022.6,1009.7,1017.0,7.7,19.5,0.7,8.9,152,138.9,0.0,0.8,0.1,0.1,1.4,71,100,28,84.8,24.1,24.1,13.5,23.9,0
HN_TT,Huyện Thạch Thất - Hà Nội,Hà Nội,Thạch Thất,21.0278,105.5564,2026-03-12 14:00:21,openmeteo,high,2026-03-12T21:00,,19.2,30.7,17.1,22.0,92,100,53,80.2,1018.7,1022.8,1009.2,1016.9,1.6,17.5,0.4,6.6,153,125.9,0.0,0.2,0.1,0.0,0.4,69,100,9,81.3,24.1,24.1,15.3,23.9,10
HN_DP,Huyện Đan Phượng - Hà Nội,Hà Nội,Đan Phượng,21.1394,105.6736,2026-03-12 14:00:20,openmeteo,high,2026-03-12T21:00,,20.7,29.2,18.1,21.7,88,99,51,82.2,1018.6,1022.6,1009.3,1016.8,6.8,20.1,0.5,9.8,122,127.3,0.0,0.7,0.3,0.1,1.3,92,100,33,84.0,24.1,24.1,17.8,24.0,10
HN_DH,Huyện Đông Anh - Hà Nội,Hà Nội,Đông Anh,21.1467,105.8464,2026-03-12 14:00:22,openmeteo,high,2026-03-12T21:00,,20.4,28.6,18.0,21.7,83,97,50,81.5,1018.8,1022.5,1009.6,1017.0,8.5,18.9,0.5,9.4,152,130.0,0.0,0.9,0.1,0.1,1.8,93,100,35,85.9,24.1,24.1,17.8,24.0,0
HN_UH,Huyện Ứng Hòa - Hà Nội,Hà Nội,Ứng Hòa,20.7292,105.8236,2026-03-12 14:00:22,openmeteo,high,2026-03-12T21:00,,19.2,28.6,17.8,21.4,86,99,54,83.1,1018.8,1022.6,1009.6,1017.0,6.8,20.2,0.4,8.4,155,143.3,0.0,0.5,0.1,0.0,1.1,70,100,35,84.9,24.1,24.1,13.5,23.9,10
HN_BD,Quận Ba Đình - Hà Nội,Hà Nội,Ba Đình,21.0338,105.8142,2026-03-12 14:00:16,openmeteo,high,2026-03-12T21:00,,20.0,28.8,17.9,21.7,84,99,50,81.6,1018.7,1022.6,1009.5,1016.9,7.4,19.0,0.7,8.8,129,136.1,0.0,0.4,0.3,0.0,0.7,80,100,17,82.8,24.1,24.1,15.8,23.9,0
HN_BTL,Quận Bắc Từ Liêm - Hà Nội,Hà Nội,Bắc Từ Liêm,21.0772,105.773,2026-03-12 14:00:18,openmeteo,high,2026-03-12T21:00,,20.6,29.1,18.0,21.6,88,99,51,82.2,1018.6,1022.6,1009.3,1016.8,6.8,20.1,0.5,9.8,122,127.3,0.0,0.7,0.3,0.1,1.3,92,100,33,84.0,24.1,24.1,15.8,23.9,10
HN_CG,Quận Cầu Giấy - Hà Nội,Hà Nội,Cầu Giấy,21.0301,105.8022,2026-03-12 14:00:15,openmeteo,high,2026-03-12T21:00,,20.1,28.9,18.0,21.7,84,99,50,81.6,1018.7,1022.6,1009.5,1016.9,7.4,19.0,0.7,8.8,129,136.1,0.0,0.4,0.3,0.0,0.7,80,100,17,82.8,24.1,24.1,15.8,23.9,0
HN_HBT,Quận Hai Bà Trưng - Hà Nội,Hà Nội,Hai Bà Trưng,21.0091,105.8606,2026-03-12 14:00:17,openmeteo,high,2026-03-12T21:00,,20.0,28.8,17.9,21.7,84,99,50,81.6,1018.7,1022.6,1009.5,1016.9,7.4,19.0,0.7,8.8,129,136.1,0.0,0.4,0.3,0.0,0.7,80,100,17,82.8,24.1,24.1,15.8,23.9,0
HN_HK,Quận Hoàn Kiếm - Hà Nội,Hà Nội,Hoàn Kiếm,21.0285,105.8542,2026-03-12 14:00:16,openmeteo,high,2026-03-12T21:00,,20.0,28.8,17.9,21.6,84,99,50,81.6,1018.7,1022.6,1009.5,1016.9,7.4,19.0,0.7,8.8,129,136.1,0.0,0.4,0.3,0.0,0.7,80,100,17,82.8,24.1,24.1,15.8,23.9,0
HN_HM,Quận Hoàng Mai - Hà Nội,Hà Nội,Hoàng Mai,20.9837,105.8636,2026-03-12 14:00:18,openmeteo,high,2026-03-12T21:00,,20.0,28.8,17.9,21.7,84,99,50,81.6,1018.7,1022.6,1009.5,1016.9,7.4,19.0,0.7,8.8,129,136.1,0.0,0.4,0.3,0.0,0.7,80,100,17,82.8,24.1,24.1,15.8,23.9,0
HN_HD,Quận Hà Đông - Hà Nội,Hà Nội,Hà Đông,20.9714,105.7788,2026-03-12 14:00:19,openmeteo,high,2026-03-12T21:00,,20.0,28.8,17.9,21.7,84,99,50,81.6,1018.7,1022.6,1009.5,1016.9,7.4,19.0,0.7,8.8,129,136.1,0.0,0.4,0.3,0.0,0.7,80,100,17,82.8,24.1,24.1,15.8,23.9,0
HN_LB,Quận Long Biên - Hà Nội,Hà Nội,Long Biên,21.054,105.8959,2026-03-12 14:00:18,openmeteo,high,2026-03-12T21:00,,20.1,28.9,18.0,21.7,84,99,50,81.6,1018.7,1022.6,1009.5,1016.9,7.4,19.0,0.7,8.8,129,136.1,0.0,0.4,0.3,0.0,0.7,80,100,17,82.8,24.1,24.1,18.3,24.0,0
HN_NTL,Quận Nam Từ Liêm - Hà Nội,Hà Nội,Nam Từ Liêm,21.0113,105.7547,2026-03-12 14:00:19,openmeteo,high,2026-03-12T21:00,,20.1,28.9,18.0,21.7,84,99,50,81.6,1018.7,1022.6,1009.5,1016.9,7.4,19.0,0.7,8.8,129,136.1,0.0,0.4,0.3,0.0,0.7,80,100,17,82.8,24.1,24.1,15.8,23.9,0
HN_TX,Quận Thanh Xuân - Hà Nội,Hà Nội,Thanh Xuân,21.001,105.8093,2026-03-12 14:00:17,openmeteo,high,2026-03-12T21:00,,20.0,28.8,17.9,21.7,84,99,50,81.6,1018.7,1022.6,1009.5,1016.9,7.4,19.0,0.7,8.8,129,136.1,0.0,0.4,0.3,0.0,0.7,80,100,17,82.8,24.1,24.1,15.8,23.9,0
HN_DD,Quận Đống Đa - Hà Nội,Hà Nội,Đống Đa,21.019,105.8315,2026-03-12 14:00:17,openmeteo,high,2026-03-12T21:00,,20.0,28.8,17.9,21.6,84,99,50,81.6,1018.7,1022.6,1009.5,1016.9,7.4,19.0,0.7,8.8,129,136.1,0.0,0.4,0.3,0.0,0.7,80,100,17,82.8,24.1,24.1,15.8,23.9,0
HN_ST,Thị xã Sơn Tây - Hà Nội,Hà Nội,Sơn Tây,21.1376,105.507,2026-03-12 14:00:19,openmeteo,high,2026-03-12T21:00,,18.7,28.8,17.6,21.4,92,98,55,81.7,1018.6,1022.7,1009.2,1016.8,3.6,18.0,0.0,8.3,135,123.8,0.0,0.8,0.1,0.1,2.1,86,100,41,84.7,24.1,24.1,18.9,24.0,10
HT_HT,Thành phố Hà Tĩnh - Hà Tĩnh,Hà Tĩnh,Hà Tĩnh,18.3333,105.9,2026-03-12 14:01:35,openmeteo,high,2026-03-12T21:00,,19.4,28.9,18.4,21.2,92,100,65,87.6,1018.6,1021.5,1010.6,1016.8,4.0,12.6,0.7,5.2,297,353.8,0.0,0.6,0.1,0.2,3.9,90,100,0,75.6,24.1,24.1,12.5,23.0,10
HT_HK,Thị xã Hồng Lĩnh - Hà Tĩnh,Hà Tĩnh,Hồng Lĩnh,18.5333,105.7167,2026-03-12 14:01:36,openmeteo,high,2026-03-12T21:00,,19.2,28.2,18.1,21.1,90,100,63,85.7,1018.6,1021.6,1010.5,1016.9,2.9,12.5,0.4,4.5,300,11.2,0.0,0.5,0.1,0.1,1.6,79,100,3,73.9,24.1,24.1,20.1,24.0,10
HT_KL,Thị xã Kỳ Anh - Hà Tĩnh,Hà Tĩnh,Kỳ Anh,18.0833,106.3,2026-03-12 14:01:36,openmeteo,high,2026-03-12T21:00,,19.7,28.5,18.8,21.4,89,100,65,86.3,1018.2,1021.4,1010.5,1016.8,3.1,14.6,0.7,5.4,324,334.8,0.0,0.6,0.1,0.2,5.0,91,100,4,77.1,24.1,24.1,8.4,22.8,10
HB_KB,Huyện Kim Bôi - Hòa Bình,Hòa Bình,Kim Bôi,20.6667,105.5333,2026-03-12 14:01:46,openmeteo,high,2026-03-12T21:00,,17.6,27.8,16.3,20.1,94,100,55,83.9,1019.3,1022.9,1010.1,1017.5,3.7,15.5,0.8,6.0,151,145.8,0.0,0.1,0.1,0.0,0.1,97,100,44,87.1,24.1,24.1,18.6,24.0,10
HB_ML,Huyện Mai Châu - Hòa Bình,Hòa Bình,Mai Châu,20.6667,105.0833,2026-03-12 14:01:46,openmeteo,high,2026-03-12T21:00,,20.5,31.5,17.1,22.8,89,99,47,81.9,1019.3,1022.9,1009.8,1017.4,1.5,12.5,0.5,4.7,104,127.4,0.0,0.1,0.1,0.0,0.1,100,100,27,82.3,24.1,24.1,4.9,23.6,10
HB_HB,Thành phố Hòa Bình - Hòa Bình,Hòa Bình,Hòa Bình,20.8133,105.3383,2026-03-12 14:01:45,openmeteo,high,2026-03-12T21:00,,17.5,28.4,16.2,20.3,93,99,56,84.6,1019.2,1023.0,1009.8,1017.3,2.8,12.6,0.5,5.0,220,146.6,0.0,0.1,0.1,0.0,0.7,73,100,43,87.1,24.1,24.1,15.9,23.8,10
HY_ML,Huyện Mỹ Hào - Hưng Yên,Hưng Yên,Mỹ Hào,20.9333,106.0667,2026-03-12 14:01:54,openmeteo,high,2026-03-12T21:00,,19.2,28.3,17.4,21.3,84,98,49,82.6,1018.9,1022.5,1010.0,1017.1,6.5,18.8,0.5,8.3,161,129.8,0.0,0.5,0.1,0.1,3.1,77,100,27,85.4,24.1,24.1,18.3,24.0,0
HY_VD,Huyện Văn Lâm - Hưng Yên,Hưng Yên,Văn Lâm,20.9833,106.0333,2026-03-12 14:01:54,openmeteo,high,2026-03-12T21:00,,20.0,28.3,18.1,21.6,83,97,50,81.1,1018.8,1022.5,1009.8,1017.0,8.1,18.7,0.5,8.9,159,131.5,0.0,0.4,0.1,0.1,1.7,88,100,32,86.5,24.1,24.1,18.3,24.0,0
HY_HY,Thành phố Hưng Yên - Hưng Yên,Hưng Yên,Hưng Yên,20.6461,106.0511,2026-03-12 14:01:54,openmeteo,high,2026-03-12T21:00,,18.9,28.5,17.6,21.2,85,99,53,84.0,1018.9,1022.5,1009.8,1017.1,5.4,18.7,1.1,7.6,160,135.6,0.0,0.6,0.1,0.1,2.3,63,100,22,84.4,24.1,24.1,13.8,23.9,0
HD_CM,Huyện Cẩm Giàng - Hải Dương,Hải Dương,Cẩm Giàng,20.95,106.2167,2026-03-12 14:01:53,openmeteo,high,2026-03-12T21:00,,19.4,28.2,17.6,21.5,83,97,48,82.2,1018.9,1022.5,1010.0,1017.1,5.9,18.5,0.8,8.1,166,130.2,0.0,0.5,0.1,0.1,2.4,79,100,32,85.9,24.1,24.1,16.8,24.0,0
HD_HD,Thành phố Hải Dương - Hải Dương,Hải Dương,Hải Dương,20.9397,106.3308,2026-03-12 14:01:53,openmeteo,high,2026-03-12T21:00,,18.8,27.5,17.3,21.3,86,98,47,82.0,1018.9,1022.5,1010.4,1017.2,4.8,20.3,0.4,8.5,167,123.3,0.0,0.4,0.1,0.1,2.8,76,100,5,82.7,24.1,24.1,16.8,24.0,10
HD_CL,Thị xã Kinh Môn - Hải Dương,Hải Dương,Kinh Môn,21.0167,106.5,2026-03-12 14:01:54,openmeteo,high,2026-03-12T21:00,,19.1,26.4,16.7,21.1,82,97,47,80.6,1018.9,1022.5,1010.9,1017.2,1.4,17.6,0.7,7.7,180,109.4,0.0,0.4,0.1,0.1,2.7,81,100,26,81.0,24.1,24.1,12.3,24.0,0
HP_AC,Huyện An Dương - Hải Phòng,Hải Phòng,An Dương,20.8667,106.6167,2026-03-12 14:00:33,openmeteo,high,2026-03-12T21:00,,19.0,26.0,17.1,21.0,82,98,54,81.6,1018.8,1022.4,1011.2,1017.3,1.1,19.5,0.5,8.5,162,101.6,0.0,0.5,0.1,0.1,3.2,66,100,19,80.6,24.1,24.1,11.7,23.9,0
HP_AL,Huyện An Lão - Hải Phòng,Hải Phòng,An Lão,20.8167,106.55,2026-03-12 14:00:32,openmeteo,high,2026-03-12T21:00,,18.3,26.7,16.7,20.9,88,99,51,83.3,1018.9,1022.4,1010.7,1017.2,4.0,21.1,1.0,9.4,170,109.3,0.0,0.5,0.1,0.2,4.2,78,100,15,81.6,24.1,24.1,11.7,23.9,10
HP_BH,Huyện Bạch Long Vĩ - Hải Phòng,Hải Phòng,Bạch Long Vĩ,20.1333,107.7333,2026-03-12 14:00:33,openmeteo,high,2026-03-12T21:00,,21.1,23.3,20.0,21.6,80,93,70,84.2,1018.4,1021.6,1011.9,1017.1,20.6,36.7,2.1,16.5,71,74.5,0.0,0.1,0.1,0.0,0.7,61,100,0,60.1,24.1,24.1,17.3,23.9,0
HP_CH,Huyện Cát Hải - Hải Phòng,Hải Phòng,Cát Hải,20.7264,107.0489,2026-03-12 14:00:34,openmeteo,high,2026-03-12T21:00,,19.1,24.6,17.4,20.6,76,95,55,80.7,1018.8,1022.4,1011.5,1017.4,2.2,18.1,1.8,8.4,81,89.5,0.0,0.2,0.1,0.0,0.8,62,100,26,77.8,24.1,24.1,20.8,24.0,0
HP_KL,Huyện Kiến Thụy - Hải Phòng,Hải Phòng,Kiến Thụy,20.75,106.6667,2026-03-12 14:00:33,openmeteo,high,2026-03-12T21:00,,19.2,25.9,17.8,21.1,82,97,56,82.1,1018.8,1022.3,1011.2,1017.3,1.1,19.1,0.8,8.5,162,98.7,0.0,0.5,0.1,0.1,3.2,74,100,29,81.1,24.1,24.1,21.2,24.1,0
HP_TL,Huyện Thủy Nguyên - Hải Phòng,Hải Phòng,Thủy Nguyên,20.9583,106.6667,2026-03-12 14:00:32,openmeteo,high,2026-03-12T21:00,,19.3,26.5,16.9,21.3,82,97,47,80.6,1018.9,1022.5,1010.9,1017.2,1.4,17.6,0.7,7.7,180,109.4,0.0,0.4,0.1,0.1,2.7,81,100,26,81.0,24.1,24.1,21.5,24.1,0
HP_TH,Huyện Tiên Lãng - Hải Phòng,Hải Phòng,Tiên Lãng,20.7333,106.55,2026-03-12 14:00:33,openmeteo,high,2026-03-12T21:00,,18.4,26.8,16.8,20.9,87,99,53,84.1,1018.9,1022.4,1010.7,1017.2,4.0,21.5,1.1,9.5,170,107.5,0.0,0.4,0.1,0.2,4.7,81,100,24,81.9,24.1,24.1,11.7,23.9,10
HP_VB,Huyện Vĩnh Bảo - Hải Phòng,Hải Phòng,Vĩnh Bảo,20.7,106.4667,2026-03-12 14:00:34,openmeteo,high,2026-03-12T21:00,,18.4,26.8,16.8,20.9,87,99,53,84.1,1018.9,1022.4,1010.7,1017.2,4.0,21.5,1.1,9.5,170,107.5,0.0,0.4,0.1,0.2,4.7,81,100,24,81.9,24.1,24.1,11.7,23.9,10
HP_DS,Quận Dương Kinh - Hải Phòng,Hải Phòng,Dương Kinh,20.8025,106.6669,2026-03-12 14:00:31,openmeteo,high,2026-03-12T21:00,,19.2,25.9,17.8,21.1,82,97,56,82.1,1018.8,1022.3,1011.2,1017.3,1.1,19.1,0.8,8.5,162,98.7,0.0,0.5,0.1,0.1,3.2,74,100,29,81.1,24.1,24.1,21.2,24.1,0
HP_HA,Quận Hải An - Hải Phòng,Hải Phòng,Hải An,20.8378,106.7377,2026-03-12 14:00:31,openmeteo,high,2026-03-12T21:00,,19.1,25.7,16.6,21.0,79,96,53,81.0,1018.8,1022.4,1011.3,1017.3,1.1,18.8,0.7,7.9,90,97.2,0.0,0.4,0.1,0.1,2.6,58,100,26,79.6,24.1,24.1,21.2,24.1,0
HP_KS,Quận Kiến An - Hải Phòng,Hải Phòng,Kiến An,20.8075,106.6264,2026-03-12 14:00:32,openmeteo,high,2026-03-12T21:00,,19.1,25.9,17.7,21.1,82,97,56,82.1,1018.8,1022.3,1011.2,1017.3,1.1,19.1,0.8,8.5,162,98.7,0.0,0.5,0.1,0.1,3.2,74,100,29,81.1,24.1,24.1,21.2,24.1,0
HP_LC,Quận Lê Chân - Hải Phòng,Hải Phòng,Lê Chân,20.8516,106.6822,2026-03-12 14:00:30,openmeteo,high,2026-03-12T21:00,,19.0,26.0,17.1,21.0,82,98,54,81.6,1018.8,1022.4,1011.2,1017.3,1.1,19.5,0.5,8.5,162,101.6,0.0,0.5,0.1,0.1,3.2,66,100,19,80.6,24.1,24.1,21.2,24.1,0
HP_NQ,Quận Ngô Quyền - Hải Phòng,Hải Phòng,Ngô Quyền,20.858,106.7053,2026-03-12 14:00:31,openmeteo,high,2026-03-12T21:00,,19.1,25.7,16.6,21.0,79,96,53,81.0,1018.8,1022.4,1011.3,1017.3,1.1,18.8,0.7,7.9,90,97.2,0.0,0.4,0.1,0.1,2.6,58,100,26,79.6,24.1,24.1,21.2,24.1,0
HP_DK,Quận Đồ Sơn - Hải Phòng,Hải Phòng,Đồ Sơn,20.7278,106.7733,2026-03-12 14:00:32,openmeteo,high,2026-03-12T21:00,,19.2,25.4,17.8,21.1,80,96,57,82.0,1018.8,1022.3,1011.5,1017.3,2.2,18.8,2.2,9.3,99,93.6,0.0,0.4,0.1,0.1,1.8,63,100,27,78.5,24.1,24.1,21.2,24.1,0
HP_CB,Đảo Cát Bà - Hải Phòng,Hải Phòng,Cát Hải,20.7264,107.0489,2026-03-12 14:02:02,openmeteo,high,2026-03-12T21:00,,19.1,24.6,17.4,20.6,76,95,55,80.7,1018.8,1022.4,1011.5,1017.4,2.2,18.1,1.8,8.4,81,89.5,0.0,0.2,0.1,0.0,0.8,62,100,26,77.8,24.1,24.1,20.8,24.0,0
HG_CL,Huyện Châu Thành - Hậu Giang,Hậu Giang,Châu Thành,9.9333,105.6833,2026-03-12 14:01:28,openmeteo,high,2026-03-12T21:00,,25.5,33.7,22.9,27.1,77,93,41,71.7,1011.1,1015.3,1008.1,1011.5,10.3,19.5,3.4,10.6,115,97.9,0.0,0.6,0.1,0.1,1.4,46,96,3,55.8,24.1,24.1,24.1,24.1,5
HG_CT,Huyện Châu Thành A - Hậu Giang,Hậu Giang,Châu Thành A,9.9333,105.6333,2026-03-12 14:01:29,openmeteo,high,2026-03-12T21:00,,25.5,33.7,22.9,27.1,77,93,41,71.7,1011.1,1015.3,1008.1,1011.5,10.3,19.5,3.4,10.6,115,97.9,0.0,0.6,0.1,0.1,1.4,46,96,3,55.8,24.1,24.1,24.1,24.1,5
HG_LT,Huyện Long Mỹ - Hậu Giang,Hậu Giang,Long Mỹ,9.6833,105.5667,2026-03-12 14:01:29,openmeteo,high,2026-03-12T21:00,,25.4,33.2,23.0,27.3,78,92,43,70.2,1011.2,1015.2,1008.0,1011.5,11.0,23.8,5.8,13.0,101,97.0,0.0,0.0,0.0,0.0,0.0,39,95,0,54.0,24.1,24.1,24.1,24.1,5
HG_PB,Huyện Phụng Hiệp - Hậu Giang,Hậu Giang,Phụng Hiệp,9.7833,105.7167,2026-03-12 14:01:29,openmeteo,high,2026-03-12T21:00,,25.3,33.2,23.0,27.2,79,92,43,70.4,1011.2,1015.2,1008.0,1011.5,11.2,22.0,5.4,12.2,105,97.3,0.0,0.1,0.1,0.0,0.2,53,100,0,53.4,24.1,24.1,24.1,24.1,5
HG_VT2,Huyện Vị Thủy - Hậu Giang,Hậu Giang,Vị Thủy,9.7667,105.4667,2026-03-12 14:01:29,openmeteo,high,2026-03-12T21:00,,25.6,33.7,23.0,27.2,77,93,42,71.0,1011.2,1015.2,1008.0,1011.5,10.0,20.9,1.6,11.2,111,97.7,0.0,0.5,0.2,0.0,1.0,42,97,0,54.4,24.1,24.1,24.1,24.1,5
HG_VT,Thành phố Vị Thanh - Hậu Giang,Hậu Giang,Vị Thanh,9.7833,105.4667,2026-03-12 14:01:28,openmeteo,high,2026-03-12T21:00,,25.6,33.7,23.0,27.2,77,93,42,71.0,1011.2,1015.2,1008.0,1011.5,10.0,20.9,1.6,11.2,111,97.7,0.0,0.5,0.2,0.0,1.0,42,97,0,54.4,24.1,24.1,24.1,24.1,5
HG_NM,Thị xã Ngã Bảy - Hậu Giang,Hậu Giang,Ngã Bảy,9.8167,105.8167,2026-03-12 14:01:28,openmeteo,high,2026-03-12T21:00,,25.2,33.5,22.9,27.2,80,92,42,70.2,1011.2,1015.3,1008.1,1011.5,11.2,20.5,4.5,11.8,111,98.0,0.0,0.2,0.2,0.0,0.2,36,100,0,55.4,24.1,24.1,24.1,24.1,5
KH_TS,Huyện Trường Sa - Khánh Hòa,Khánh Hòa,Trường Sa,8.65,111.9167,2026-03-12 14:01:40,openmeteo,high,2026-03-12T21:00,,26.9,27.8,26.0,26.9,81,85,68,76.7,1011.1,1014.9,1008.6,1011.5,35.5,37.1,17.3,29.3,33,51.8,0.0,0.8,0.1,0.4,8.7,35,100,6,53.2,22.1,24.1,7.6,23.3,5
KH_CT,Thành phố Cam Ranh - Khánh Hòa,Khánh Hòa,Cam Ranh,11.9,109.1333,2026-03-12 14:01:40,openmeteo,high,2026-03-12T21:00,,21.6,29.3,19.3,23.3,71,93,48,70.5,1014.6,1018.2,1011.6,1014.6,11.5,27.4,4.1,12.7,20,28.8,0.0,0.1,0.1,0.0,0.2,57,96,23,64.0,24.1,24.1,13.8,23.6,0
KH_NT,Thành phố Nha Trang - Khánh Hòa,Khánh Hòa,Nha Trang,12.25,109.1833,2026-03-12 14:01:40,openmeteo,high,2026-03-12T21:00,,22.7,32.0,20.8,24.7,80,92,48,74.1,1014.5,1018.3,1011.3,1014.5,2.5,16.2,0.7,6.5,315,343.8,0.0,0.8,0.1,0.0,1.0,57,97,0,57.6,24.1,24.1,7.8,22.9,0
KH_NH,Thị xã Ninh Hòa - Khánh Hòa,Khánh Hòa,Ninh Hòa,12.5,109.15,2026-03-12 14:01:40,openmeteo,high,2026-03-12T21:00,,23.0,31.5,19.7,24.2,82,97,46,78.5,1014.5,1018.4,1011.2,1014.5,2.5,17.3,0.5,6.1,225,50.0,0.0,1.7,0.1,0.3,6.8,69,100,0,65.1,22.8,24.1,7.5,22.8,0
KH_HS,Đảo Hoàng Sa - Khánh Hòa,Khánh Hòa,Hoàng Sa,16.5322,111.6156,2026-03-12 14:02:04,openmeteo,high,2026-03-12T22:00,,24.1,25.9,23.4,24.7,69,84,62,72.4,1015.9,1019.2,1012.5,1015.5,36.9,45.1,4.7,27.3,39,66.0,0.0,0.5,0.1,0.2,5.3,86,97,2,52.9,24.1,24.1,8.2,23.4,0
KH_TS,Đảo Trường Sa - Khánh Hòa,Khánh Hòa,Trường Sa,8.65,111.9167,2026-03-12 14:02:03,openmeteo,high,2026-03-12T21:00,,26.9,27.8,26.0,26.9,81,85,68,76.7,1011.1,1014.9,1008.6,1011.5,35.5,37.1,17.3,29.3,33,51.8,0.0,0.8,0.1,0.4,8.7,35,100,6,53.2,22.1,24.1,7.6,23.3,5
KG_AT,Huyện An Biên - Kiên Giang,Kiên Giang,An Biên,9.8167,105.0667,2026-03-12 14:01:13,openmeteo,high,2026-03-12T21:00,,27.0,31.4,24.7,27.1,79,88,52,76.6,1011.1,1015.3,1008.4,1011.6,8.4,23.6,1.0,12.8,170,91.3,0.0,1.1,0.1,0.2,4.5,68,84,0,48.7,24.1,24.1,19.7,24.1,5
KG_AM,Huyện An Minh - Kiên Giang,Kiên Giang,An Minh,9.6667,104.95,2026-03-12 14:01:13,openmeteo,high,2026-03-12T21:00,,26.7,31.9,24.1,27.0,83,90,48,77.2,1011.1,1015.1,1008.4,1011.6,4.3,28.0,1.5,13.1,156,95.5,0.0,2.3,0.1,0.6,14.9,65,87,0,52.6,24.1,24.1,19.7,24.1,5
KG_CL,Huyện Châu Thành - Kiên Giang,Kiên Giang,Châu Thành,9.9333,105.1667,2026-03-12 14:01:14,openmeteo,high,2026-03-12T21:00,,27.0,31.4,24.7,27.2,79,88,52,76.6,1011.1,1015.3,1008.4,1011.6,8.4,23.6,1.0,12.8,170,91.3,0.0,1.1,0.1,0.2,4.5,68,84,0,48.7,24.1,24.1,23.5,24.1,5
KG_GT,Huyện Giang Thành - Kiên Giang,Kiên Giang,Giang Thành,10.4833,104.6333,2026-03-12 14:01:14,openmeteo,high,2026-03-12T21:00,,26.5,33.9,23.4,27.8,85,93,43,72.8,1010.6,1015.6,1008.0,1011.6,6.5,12.6,0.5,5.9,186,113.7,0.0,2.8,0.1,0.3,7.0,56,92,6,62.5,24.1,24.1,8.0,23.9,5
KG_GD,Huyện Gò Quao - Kiên Giang,Kiên Giang,Gò Quao,9.7333,105.2667,2026-03-12 14:01:13,openmeteo,high,2026-03-12T21:00,,26.1,34.0,23.1,27.3,85,92,40,72.2,1011.2,1015.3,1008.1,1011.5,6.1,19.8,2.1,10.3,152,96.9,0.0,1.6,0.1,0.2,4.9,64,90,0,56.2,24.1,24.1,22.0,24.1,5
KG_HG,Huyện Hòn Đất - Kiên Giang,Kiên Giang,Hòn Đất,10.2333,104.9333,2026-03-12 14:01:14,openmeteo,high,2026-03-12T21:00,,27.0,30.5,25.1,27.5,78,85,60,75.4,1010.9,1015.5,1008.4,1011.6,7.0,16.6,1.8,9.3,168,131.1,0.0,2.2,0.1,0.8,19.2,74,86,0,53.3,24.1,24.1,4.6,24.0,5
KG_KT,Huyện Kiên Hải - Kiên Giang,Kiên Giang,Kiên Hải,9.71,104.33,2026-03-12 14:01:15,openmeteo,high,2026-03-12T21:00,,27.1,28.9,26.2,27.4,80,81,69,75.4,1011.1,1015.2,1008.4,1011.6,7.1,25.6,0.4,14.8,139,100.8,0.2,0.9,0.1,0.4,8.5,68,84,0,39.2,24.1,24.1,16.1,23.9,30
KG_LS,Huyện Kiên Lương - Kiên Giang,Kiên Giang,Kiên Lương,10.25,104.6333,2026-03-12 14:01:15,openmeteo,high,2026-03-12T21:00,,27.8,29.6,26.1,27.7,78,83,64,74.8,1010.8,1015.4,1008.4,1011.6,9.7,18.9,0.4,10.2,180,139.3,0.0,1.9,0.1,1.0,23.4,56,89,0,43.7,24.1,24.1,22.0,24.1,5
KG_PQ,Huyện Phú Quốc - Kiên Giang,Kiên Giang,Phú Quốc,10.227,103.9679,2026-03-12 14:01:13,openmeteo,high,2026-03-12T21:00,,27.8,30.4,25.7,27.9,77,87,59,75.8,1010.8,1015.3,1008.5,1011.6,3.6,19.0,1.3,8.8,270,116.2,0.0,2.8,0.1,1.9,44.8,40,90,0,48.7,24.1,24.1,4.0,22.6,5
KG_TG,Huyện Tân Hiệp - Kiên Giang,Kiên Giang,Tân Hiệp,10.1,105.2833,2026-03-12 14:01:15,openmeteo,high,2026-03-12T21:00,,25.9,34.3,22.9,27.3,86,93,39,72.7,1011.0,1015.4,1008.1,1011.5,5.6,16.7,0.8,8.3,165,103.6,0.0,1.5,0.1,0.2,5.6,73,92,0,57.2,24.1,24.1,23.5,24.1,15
KG_UM,Huyện U Minh Thượng - Kiên Giang,Kiên Giang,U Minh Thượng,9.6,105.1,2026-03-12 14:01:15,openmeteo,high,2026-03-12T21:00,,25.5,33.6,22.6,26.9,90,94,41,74.3,1011.2,1015.2,1008.0,1011.5,3.6,21.8,1.8,9.7,143,99.6,0.0,2.3,0.1,0.4,8.8,51,92,0,56.1,24.1,24.1,8.7,24.0,15
KG_VT,Huyện Vĩnh Thuận - Kiên Giang,Kiên Giang,Vĩnh Thuận,9.5333,105.25,2026-03-12 14:01:16,openmeteo,high,2026-03-12T21:00,,25.4,33.4,22.7,26.9,81,93,42,73.6,1011.3,1015.1,1008.0,1011.5,6.5,22.8,2.3,10.9,109,101.1,0.0,3.4,0.1,0.4,9.0,19,100,0,53.6,24.1,24.1,24.1,24.1,5
KG_HN,Thành phố Hà Tiên - Kiên Giang,Kiên Giang,Hà Tiên,10.3833,104.4833,2026-03-12 14:01:12,openmeteo,high,2026-03-12T21:00,,28.3,29.8,25.8,27.7,75,84,59,74.9,1010.6,1015.5,1008.3,1011.6,8.1,14.1,0.7,8.4,212,149.8,0.0,4.9,0.1,1.6,38.8,34,91,0,46.7,24.1,24.1,6.3,23.5,5
KG_RG,Thành phố Rạch Giá - Kiên Giang,Kiên Giang,Rạch Giá,10.0317,105.0809,2026-03-12 14:01:12,openmeteo,high,2026-03-12T21:00,,26.8,33.2,24.4,27.4,81,89,45,74.5,1011.0,1015.3,1008.3,1011.6,6.9,18.8,1.0,9.7,171,105.1,0.0,1.7,0.1,0.7,16.9,74,87,0,53.6,24.1,24.1,23.5,24.1,5
KG_ND,Đảo Nam Du - Kiên Giang,Kiên Giang,Kiên Hải,9.71,104.33,2026-03-12 14:02:04,openmeteo,high,2026-03-12T21:00,,27.1,28.9,26.2,27.4,80,81,69,75.4,1011.1,1015.2,1008.4,1011.6,7.1,25.6,0.4,14.8,139,100.8,0.2,0.9,0.1,0.4,8.5,68,84,0,39.2,24.1,24.1,16.1,23.9,30
KG_PQ2,Đảo Phú Quốc - Kiên Giang,Kiên Giang,Phú Quốc,10.227,103.9679,2026-03-12 14:02:04,openmeteo,high,2026-03-12T21:00,,27.8,30.4,25.7,27.9,77,87,59,75.8,1010.8,1015.3,1008.5,1011.6,3.6,19.0,1.3,8.8,270,116.2,0.0,2.8,0.1,1.9,44.8,40,90,0,48.7,24.1,24.1,4.0,22.6,5
KG_TC,Đảo Thổ Chu - Kiên Giang,Kiên Giang,Phú Quốc,9.3,103.4833,2026-03-12 14:02:04,openmeteo,high,2026-03-12T21:00,,26.7,27.8,25.7,26.6,77,83,70,76.9,1011.0,1015.1,1008.6,1011.6,9.8,30.3,2.3,16.8,126,104.6,0.0,1.7,0.1,0.9,21.0,16,83,0,44.8,24.1,24.1,7.3,23.7,5
KT_NH,Huyện Ngọc Hồi - Kon Tum,Kon Tum,Ngọc Hồi,14.7,107.8333,2026-03-12 14:02:00,openmeteo,high,2026-03-12T21:00,,21.3,31.3,16.1,23.1,69,89,36,64.0,1014.4,1019.1,1009.7,1014.5,3.5,16.5,0.5,5.4,66,81.9,0.0,0.1,0.1,0.0,0.6,66,100,0,44.7,24.1,24.1,18.6,24.1,0
KT_DG,Huyện Đắk Glei - Kon Tum,Kon Tum,Đắk Glei,15.0167,107.75,2026-03-12 14:01:59,openmeteo,high,2026-03-12T21:00,,20.4,32.1,17.3,22.5,76,96,34,68.8,1016.1,1020.1,1010.8,1016.0,10.7,15.4,1.9,8.0,20,19.5,0.0,0.1,0.1,0.0,0.1,65,100,0,51.3,13.0,24.1,0.4,18.2,0
KT_KT,Thành phố Kon Tum - Kon Tum,Kon Tum,Kon Tum,14.3833,107.9833,2026-03-12 14:01:59,openmeteo,high,2026-03-12T21:00,,22.0,32.6,18.2,24.2,68,87,31,60.9,1014.5,1019.1,1009.3,1014.5,8.7,26.2,0.4,9.5,85,76.8,0.0,0.0,0.0,0.0,0.0,36,100,0,38.8,24.1,24.1,20.4,24.1,0
LC_PT,Huyện Phong Thổ - Lai Châu,Lai Châu,Phong Thổ,22.5333,103.3333,2026-03-12 14:01:45,openmeteo,high,2026-03-12T21:00,,17.4,26.4,13.7,18.7,90,97,57,80.4,1018.0,1021.6,1009.6,1016.3,4.3,8.4,1.8,4.6,185,171.3,0.0,1.0,0.1,0.6,14.4,100,100,29,86.5,24.1,24.1,4.4,22.5,10
LC_TN,Huyện Tam Đường - Lai Châu,Lai Châu,Tam Đường,22.3667,103.6167,2026-03-12 14:01:45,openmeteo,high,2026-03-12T21:00,,11.3,19.8,9.1,13.0,78,98,62,81.0,1018.8,1022.0,1010.6,1017.0,5.1,9.2,1.3,5.8,86,129.0,0.0,0.9,0.1,0.4,10.2,100,100,33,85.9,24.1,24.1,5.7,22.9,0
LC_LC,Thành phố Lai Châu - Lai Châu,Lai Châu,Lai Châu,22.4,103.45,2026-03-12 14:01:44,openmeteo,high,2026-03-12T21:00,,17.4,25.9,14.9,19.0,84,96,62,81.0,1018.5,1021.8,1010.2,1016.7,3.8,8.0,1.6,4.6,131,151.9,0.0,1.5,0.1,0.9,22.6,99,100,35,87.4,24.1,24.1,1.4,18.2,0
LA_DH,Huyện Đức Hòa - Long An,Long An,Đức Hòa,10.8833,106.4167,2026-03-12 14:02:01,openmeteo,high,2026-03-12T21:00,,25.9,35.6,22.6,27.7,75,94,35,69.0,1010.2,1015.6,1007.4,1011.4,15.4,20.0,0.0,7.6,164,87.8,0.0,1.0,0.1,0.0,1.1,10,96,0,48.0,24.1,24.1,18.7,24.0,5
LA_TA,Thành phố Tân An - Long An,Long An,Tân An,10.5333,106.4167,2026-03-12 14:02:01,openmeteo,high,2026-03-12T21:00,,25.2,33.1,23.0,27.1,80,92,44,71.9,1010.9,1015.6,1008.2,1011.5,12.0,20.2,1.3,10.4,134,105.9,0.0,0.4,0.1,0.0,0.9,36,93,2,54.6,24.1,24.1,24.1,24.1,5
LA_KT,Thị xã Kiến Tường - Long An,Long An,Kiến Tường,10.7667,105.9,2026-03-12 14:02:01,openmeteo,high,2026-03-12T21:00,,26.0,34.8,23.0,27.6,76,94,38,70.5,1010.6,1015.7,1007.4,1011.4,11.9,16.5,1.0,7.9,155,105.8,0.0,0.1,0.1,0.0,0.2,27,92,0,51.0,24.1,24.1,20.6,24.1,5
LC_BT,Huyện Bát Xát - Lào Cai,Lào Cai,Bát Xát,22.5333,103.8833,2026-03-12 14:02:00,openmeteo,high,2026-03-12T21:00,,11.8,22.1,10.7,14.9,98,100,57,86.0,1020.8,1023.7,1011.5,1018.1,7.1,13.4,1.1,6.4,66,188.5,0.0,0.5,0.1,0.1,3.1,96,100,27,88.1,24.1,24.1,0.7,19.0,10
LC_SM,Huyện Sa Pa - Lào Cai,Lào Cai,Sa Pa,22.3367,103.84,2026-03-12 14:02:00,openmeteo,high,2026-03-12T21:00,,14.9,23.8,12.8,16.5,80,100,59,82.8,1019.3,1022.4,1011.1,1017.5,7.8,12.5,0.7,6.4,56,122.4,0.0,1.2,0.1,0.4,8.7,97,100,35,86.5,24.1,24.1,1.2,16.1,0
LC_LC2,Thành phố Lào Cai - Lào Cai,Lào Cai,Lào Cai,22.4833,103.95,2026-03-12 14:02:00,openmeteo,high,2026-03-12T21:00,,18.0,27.9,17.3,19.8,91,100,63,85.2,1019.6,1022.9,1008.9,1017.0,2.6,11.6,0.7,4.1,236,78.4,0.0,0.2,0.1,0.1,1.6,100,100,13,89.6,24.1,24.1,0.7,19.0,10
LD_BD,Huyện Bảo Lâm - Lâm Đồng,Lâm Đồng,Bảo Lâm,11.7,107.7167,2026-03-12 14:01:00,openmeteo,high,2026-03-12T21:00,,20.3,31.9,17.6,23.2,75,92,30,65.6,1012.8,1017.2,1008.9,1013.1,7.3,15.8,1.5,7.1,57,54.1,0.0,0.1,0.1,0.0,0.3,30,99,0,40.1,24.1,24.1,11.6,24.0,0
LD_CD,Huyện Cát Tiên - Lâm Đồng,Lâm Đồng,Cát Tiên,11.5833,107.35,2026-03-12 14:01:00,openmeteo,high,2026-03-12T21:00,,26.0,33.9,20.7,26.5,68,92,35,65.2,1011.3,1016.1,1007.9,1011.9,1.4,15.0,0.4,4.6,360,41.0,0.0,0.9,0.1,0.2,4.4,73,100,0,40.2,24.1,24.1,20.7,24.1,5
LD_DD,Huyện Di Linh - Lâm Đồng,Lâm Đồng,Di Linh,11.5833,108.0667,2026-03-12 14:01:01,openmeteo,high,2026-03-12T21:00,,19.6,29.0,14.4,20.4,79,97,30,73.2,1013.5,1017.9,1009.5,1014.1,6.2,12.9,0.8,5.0,83,62.7,0.0,1.6,0.1,0.3,6.8,35,100,0,51.5,24.1,24.1,22.8,24.1,0
LD_LH,Huyện Lâm Hà - Lâm Đồng,Lâm Đồng,Lâm Hà,11.8333,108.2,2026-03-12 14:01:02,openmeteo,high,2026-03-12T21:00,,20.6,29.5,15.1,21.3,78,97,35,72.0,1014.1,1018.1,1010.1,1014.6,2.2,15.6,0.0,5.5,99,30.5,0.0,3.3,0.1,0.3,6.4,33,100,0,42.9,24.1,24.1,17.3,24.0,0
LD_LC,Huyện Lạc Dương - Lâm Đồng,Lâm Đồng,Lạc Dương,12.0,108.4333,2026-03-12 14:01:02,openmeteo,high,2026-03-12T21:00,,15.9,24.6,12.6,17.6,82,92,40,71.5,1015.2,1018.8,1011.3,1015.4,9.2,17.1,3.2,8.7,59,51.5,0.0,1.2,0.1,0.1,2.4,42,100,0,44.6,1.0,24.1,0.4,19.6,0
LD_DT2,Huyện Đam Rông - Lâm Đồng,Lâm Đồng,Đam Rông,12.0833,108.1667,2026-03-12 14:01:00,openmeteo,high,2026-03-12T21:00,,21.3,33.2,16.3,23.4,77,100,32,70.6,1013.6,1017.9,1009.5,1013.8,6.2,21.6,0.4,7.7,353,12.2,0.0,0.1,0.1,0.0,0.2,0,95,0,30.3,24.1,24.1,5.8,23.8,0
LD_DL2,Huyện Đơn Dương - Lâm Đồng,Lâm Đồng,Đơn Dương,11.75,108.55,2026-03-12 14:01:01,openmeteo,high,2026-03-12T21:00,,19.5,29.0,14.1,20.6,73,98,33,68.0,1014.4,1018.0,1010.6,1014.7,8.9,18.8,5.0,9.4,63,75.8,0.0,0.4,0.1,0.1,1.3,74,100,0,49.4,24.1,24.1,7.8,23.7,0
LD_DH,Huyện Đạ Huoai - Lâm Đồng,Lâm Đồng,Đạ Huoai,11.4167,107.6333,2026-03-12 14:00:59,openmeteo,high,2026-03-12T21:00,,25.2,33.6,20.5,26.7,86,98,45,74.7,1011.1,1015.9,1008.2,1011.9,2.7,12.1,0.8,4.3,23,130.4,0.0,1.2,0.1,0.1,2.7,57,100,0,44.3,24.1,24.1,19.2,24.1,15
LD_DT,Huyện Đạ Tẻh - Lâm Đồng,Lâm Đồng,Đạ Tẻh,11.5,107.5167,2026-03-12 14:01:00,openmeteo,high,2026-03-12T21:00,,26.4,35.0,20.5,27.2,67,96,34,67.0,1011.0,1015.8,1007.8,1011.7,3.8,12.1,0.0,3.9,343,49.0,0.0,2.7,0.1,0.2,5.7,47,94,0,39.5,24.1,24.1,22.2,24.1,5
LD_DR,Huyện Đức Trọng - Lâm Đồng,Lâm Đồng,Đức Trọng,11.7333,108.3,2026-03-12 14:01:01,openmeteo,high,2026-03-12T21:00,,20.1,29.9,14.5,21.2,76,100,32,73.2,1013.7,1017.9,1009.6,1014.1,5.7,12.2,0.4,4.7,125,74.1,0.0,2.7,0.1,0.4,9.0,47,100,0,49.8,24.1,24.1,17.3,24.0,0
LD_BA,Thành phố Bảo Lộc - Lâm Đồng,Lâm Đồng,Bảo Lộc,11.55,107.8,2026-03-12 14:01:00,openmeteo,high,2026-03-12T21:00,,21.5,29.9,18.2,23.5,87,91,50,73.2,1011.9,1016.4,1009.0,1012.5,5.5,11.5,0.4,6.0,67,97.9,0.0,1.8,0.1,0.2,4.8,14,100,0,41.6,24.1,24.1,19.2,24.1,10
LD_DL,Thành phố Đà Lạt - Lâm Đồng,Lâm Đồng,Đà Lạt,11.9404,108.4587,2026-03-12 14:00:59,openmeteo,high,2026-03-12T21:00,,16.6,25.2,13.3,18.3,82,92,40,71.5,1015.2,1018.8,1011.3,1015.4,9.2,17.1,3.2,8.7,59,51.5,0.0,1.2,0.1,0.1,2.4,42,100,0,44.6,1.0,24.1,0.4,19.6,0
LS_CL,Huyện Cao Lộc - Lạng Sơn,Lạng Sơn,Cao Lộc,21.9,106.8,2026-03-12 14:01:46,openmeteo,high,2026-03-12T21:00,,17.4,24.3,13.5,19.3,70,97,46,78.5,1019.3,1023.0,1011.3,1017.7,2.8,16.7,0.4,6.9,40,141.7,0.0,0.5,0.1,0.1,1.4,7,100,7,81.4,24.1,24.1,24.1,24.1,0
LS_LL,Huyện Lộc Bình - Lạng Sơn,Lạng Sơn,Lộc Bình,21.75,106.9333,2026-03-12 14:01:47,openmeteo,high,2026-03-12T21:00,,18.0,25.0,13.8,19.1,70,98,45,78.2,1019.3,1023.0,1011.5,1017.8,1.5,16.0,0.4,6.6,104,139.0,0.0,0.4,0.1,0.0,0.9,63,100,16,78.1,24.1,24.1,24.1,24.1,0
LS_LS,Thành phố Lạng Sơn - Lạng Sơn,Lạng Sơn,Lạng Sơn,21.8478,106.7578,2026-03-12 14:01:46,openmeteo,high,2026-03-12T21:00,,17.5,24.4,13.6,19.4,70,97,46,78.5,1019.3,1023.0,1011.3,1017.7,2.8,16.7,0.4,6.9,40,141.7,0.0,0.5,0.1,0.1,1.4,7,100,7,81.4,24.1,24.1,24.1,24.1,0
ND_GL,Huyện Giao Thủy - Nam Định,Nam Định,Giao Thủy,20.2333,106.45,2026-03-12 14:00:43,openmeteo,high,2026-03-12T21:00,,18.4,25.7,16.6,20.9,90,99,58,85.9,1018.8,1022.0,1011.1,1017.2,2.8,22.0,2.4,9.0,40,89.1,0.0,0.4,0.1,0.1,2.4,93,100,20,78.9,24.1,24.1,18.0,24.0,10
ND_HH,Huyện Hải Hậu - Nam Định,Nam Định,Hải Hậu,20.1833,106.3,2026-03-12 14:00:44,openmeteo,high,2026-03-12T21:00,,19.3,26.3,17.3,21.2,85,99,58,84.4,1018.8,1022.1,1010.9,1017.2,1.8,16.6,0.4,6.3,360,90.8,0.0,0.3,0.1,0.1,1.9,98,100,29,78.6,24.1,24.1,21.5,24.0,0
ND_ML,Huyện Mỹ Lộc - Nam Định,Nam Định,Mỹ Lộc,20.4667,106.1167,2026-03-12 14:00:44,openmeteo,high,2026-03-12T21:00,,19.4,28.0,17.9,21.4,82,99,53,82.4,1018.9,1022.4,1010.2,1017.2,2.6,16.1,0.4,6.4,164,130.7,0.0,0.4,0.1,0.1,1.6,85,100,18,83.4,24.1,24.1,15.6,23.9,0
ND_NC,Huyện Nam Trực - Nam Định,Nam Định,Nam Trực,20.3333,106.2,2026-03-12 14:00:44,openmeteo,high,2026-03-12T21:00,,18.9,26.6,16.9,21.0,86,99,55,84.9,1018.9,1022.2,1010.8,1017.2,1.1,19.5,1.1,7.7,72,98.0,0.0,0.4,0.1,0.1,1.9,93,100,28,81.6,24.1,24.1,11.6,23.9,10
ND_TK,Huyện Trực Ninh - Nam Định,Nam Định,Trực Ninh,20.25,106.25,2026-03-12 14:00:45,openmeteo,high,2026-03-12T21:00,,18.9,26.4,16.9,21.0,87,99,55,85.1,1018.8,1022.1,1010.9,1017.2,1.3,20.5,1.3,8.0,34,94.2,0.0,0.4,0.1,0.1,1.7,95,100,23,80.6,24.1,24.1,11.6,23.9,10
ND_VB,Huyện Vụ Bản - Nam Định,Nam Định,Vụ Bản,20.3667,106.1,2026-03-12 14:00:45,openmeteo,high,2026-03-12T21:00,,19.2,27.3,17.3,21.2,85,99,55,84.2,1018.9,1022.2,1010.5,1017.2,1.1,18.1,0.8,6.8,162,110.1,0.0,0.3,0.1,0.1,1.5,95,100,29,82.2,24.1,24.1,13.2,24.0,0
ND_XT,Huyện Xuân Trường - Nam Định,Nam Định,Xuân Trường,20.3,106.35,2026-03-12 14:00:45,openmeteo,high,2026-03-12T21:00,,18.4,25.7,16.5,20.9,90,99,58,85.9,1018.8,1022.0,1011.1,1017.2,2.8,22.0,2.4,9.0,40,89.1,0.0,0.4,0.1,0.1,2.4,93,100,20,78.9,24.1,24.1,11.6,23.9,10
ND_YN,Huyện Ý Yên - Nam Định,Nam Định,Ý Yên,20.3167,106.0167,2026-03-12 14:00:46,openmeteo,high,2026-03-12T21:00,,19.4,27.5,17.4,21.2,84,100,54,83.5,1019.0,1022.3,1010.3,1017.2,1.3,17.4,0.0,6.0,146,118.6,0.0,0.3,0.1,0.0,0.8,99,100,37,85.1,24.1,24.1,13.2,24.0,0
ND_TP,Thành phố Nam Định - Nam Định,Nam Định,Nam Định,20.42,106.1683,2026-03-12 14:00:43,openmeteo,high,2026-03-12T21:00,,19.1,27.2,17.3,21.2,85,99,55,84.2,1018.9,1022.2,1010.5,1017.2,1.1,18.1,0.8,6.8,162,110.1,0.0,0.3,0.1,0.1,1.5,95,100,29,82.2,24.1,24.1,11.6,23.9,0
NA_HH,Huyện Hoàng Mai - Nghệ An,Nghệ An,Hoàng Mai,19.2667,105.7167,2026-03-12 14:01:36,openmeteo,high,2026-03-12T21:00,,19.3,26.7,16.6,20.9,86,99,65,85.9,1018.8,1021.7,1010.9,1017.1,2.2,15.0,0.0,5.4,351,35.2,0.0,0.3,0.1,0.1,1.4,91,100,0,77.0,24.1,24.1,18.3,23.8,10
NA_VH,Thành phố Vinh - Nghệ An,Nghệ An,Vinh,18.6733,105.6811,2026-03-12 14:01:35,openmeteo,high,2026-03-12T21:00,,19.6,29.2,18.3,21.4,89,100,61,85.1,1018.7,1021.6,1010.3,1016.8,2.1,11.4,0.4,4.2,301,3.7,0.0,0.3,0.1,0.1,1.3,83,100,12,77.2,24.1,24.1,15.5,23.5,10
NA_CT,Thị xã Cửa Lò - Nghệ An,Nghệ An,Cửa Lò,18.8167,105.7167,2026-03-12 14:01:36,openmeteo,high,2026-03-12T21:00,,19.9,28.4,18.5,21.4,88,100,64,86.0,1018.6,1021.6,1010.7,1016.9,1.5,11.2,0.4,4.3,315,15.3,0.0,0.7,0.1,0.1,2.5,76,100,11,75.2,24.1,24.1,15.5,23.5,10
NA_TH,Thị xã Thái Hòa - Nghệ An,Nghệ An,Thái Hòa,19.3,105.4667,2026-03-12 14:01:36,openmeteo,high,2026-03-12T21:00,,19.5,28.1,17.1,21.0,80,100,60,83.6,1018.9,1021.9,1010.3,1017.1,1.8,13.4,0.0,4.3,323,38.4,0.0,0.1,0.1,0.0,0.2,97,100,21,80.4,24.1,24.1,18.5,24.0,0
NB_HS,Huyện Hoa Lư - Ninh Bình,Ninh Bình,Hoa Lư,20.2833,105.9167,2026-03-12 14:01:55,openmeteo,high,2026-03-12T21:00,,19.1,27.6,17.0,21.0,84,100,52,83.0,1019.0,1022.3,1010.3,1017.2,1.0,16.4,0.0,5.4,135,122.1,0.0,0.1,0.1,0.0,0.6,99,100,35,83.3,24.1,24.1,13.2,24.0,0
NB_NB,Thành phố Ninh Bình - Ninh Bình,Ninh Bình,Ninh Bình,20.2539,105.975,2026-03-12 14:01:54,openmeteo,high,2026-03-12T21:00,,19.2,27.1,17.3,21.1,84,100,53,83.7,1018.9,1022.2,1010.6,1017.2,0.0,16.3,0.0,5.4,270,110.5,0.0,0.2,0.1,0.0,0.5,99,100,34,82.3,24.1,24.1,13.2,24.0,0
NB_TL,Thành phố Tam Điệp - Ninh Bình,Ninh Bình,Tam Điệp,20.15,105.9167,2026-03-12 14:01:54,openmeteo,high,2026-03-12T21:00,,19.5,27.1,17.4,21.1,82,100,54,83.5,1018.9,1022.1,1010.5,1017.2,0.5,14.7,0.5,5.1,45,100.1,0.0,0.3,0.1,0.0,1.0,99,100,34,82.3,24.1,24.1,13.2,24.0,0
NT_NA,Huyện Ninh Hải - Ninh Thuận,Ninh Thuận,Ninh Hải,11.6,109.0333,2026-03-12 14:01:42,openmeteo,high,2026-03-12T21:00,,24.3,33.1,19.6,25.9,64,88,39,64.9,1013.0,1016.8,1010.0,1013.1,1.3,26.3,0.0,9.1,56,27.8,0.0,0.0,0.0,0.0,0.0,43,100,0,35.6,24.1,24.1,24.1,24.1,0
NT_TA,Huyện Thuận Bắc - Ninh Thuận,Ninh Thuận,Thuận Bắc,11.75,108.9333,2026-03-12 14:01:41,openmeteo,high,2026-03-12T21:00,,23.1,33.0,18.5,24.7,63,89,37,63.1,1013.4,1017.1,1010.1,1013.4,1.9,23.3,0.7,7.6,22,13.3,0.0,0.0,0.0,0.0,0.0,49,94,0,44.0,24.1,24.1,23.8,24.1,0
NT_PH,Thành phố Phan Rang-Tháp Chàm - Ninh Thuận,Ninh Thuận,Phan Rang-Tháp Chàm,11.5667,108.9833,2026-03-12 14:01:41,openmeteo,high,2026-03-12T21:00,,24.3,33.1,19.6,25.9,64,88,39,64.9,1013.0,1016.8,1010.0,1013.1,1.3,26.3,0.0,9.1,56,27.8,0.0,0.0,0.0,0.0,0.0,43,100,0,35.6,24.1,24.1,24.1,24.1,0
PT_HT,Huyện Hạ Hòa - Phú Thọ,Phú Thọ,Hạ Hòa,21.55,105.0,2026-03-12 14:01:51,openmeteo,high,2026-03-12T21:00,,18.1,26.0,15.6,20.2,79,98,52,84.5,1019.0,1022.8,1010.2,1017.2,4.2,11.9,0.5,3.9,250,127.9,0.0,0.3,0.1,0.1,1.2,63,100,35,86.2,24.1,24.1,3.0,23.6,0
PT_VT,Thành phố Việt Trì - Phú Thọ,Phú Thọ,Việt Trì,21.3,105.4333,2026-03-12 14:01:51,openmeteo,high,2026-03-12T21:00,,20.1,28.6,18.4,21.8,86,98,51,82.0,1018.4,1022.6,1009.3,1016.7,1.1,17.2,0.0,8.6,180,121.3,0.0,0.2,0.2,0.0,0.2,66,100,7,82.3,24.1,24.1,18.9,24.0,10
PT_PT,Thị xã Phú Thọ - Phú Thọ,Phú Thọ,Phú Thọ,21.4,105.2333,2026-03-12 14:01:51,openmeteo,high,2026-03-12T21:00,,19.9,27.8,17.3,21.4,86,96,50,82.7,1018.4,1022.7,1009.5,1016.8,2.2,15.5,0.4,7.2,279,129.1,0.0,0.4,0.1,0.1,1.5,41,100,20,85.2,24.1,24.1,6.9,23.5,10
PY_DD,Huyện Đông Hòa - Phú Yên,Phú Yên,Đông Hòa,12.9833,109.3667,2026-03-12 14:01:40,openmeteo,high,2026-03-12T21:00,,22.0,28.7,20.0,22.8,89,98,63,85.4,1015.4,1019.1,1011.8,1015.3,8.6,16.7,1.1,6.8,15,12.5,0.0,1.3,0.1,0.5,12.8,86,100,13,77.5,16.0,24.1,5.6,19.6,10
PY_TH,Thành phố Tuy Hòa - Phú Yên,Phú Yên,Tuy Hòa,13.0833,109.3,2026-03-12 14:01:39,openmeteo,high,2026-03-12T21:00,,22.0,30.6,18.5,23.4,86,99,51,78.0,1015.0,1018.8,1011.4,1015.0,8.4,18.2,1.1,9.0,40,41.3,0.0,0.5,0.1,0.0,1.2,72,98,24,67.4,16.0,24.1,5.6,19.6,10
PY_SH,Thị xã Sông Cầu - Phú Yên,Phú Yên,Sông Cầu,13.45,109.2167,2026-03-12 14:01:40,openmeteo,high,2026-03-12T21:00,,22.4,31.2,18.1,23.6,81,97,47,75.3,1015.2,1018.9,1011.6,1015.2,7.2,20.5,0.0,8.2,18,14.1,0.0,0.4,0.1,0.0,1.2,88,99,0,66.4,19.6,24.1,5.0,20.6,0
QB_BT,Huyện Bố Trạch - Quảng Bình,Quảng Bình,Bố Trạch,17.5,106.25,2026-03-12 14:00:51,openmeteo,high,2026-03-12T21:00,,16.1,27.1,14.4,18.2,89,100,58,86.3,1018.5,1021.4,1011.3,1017.2,7.4,13.0,0.4,6.1,29,51.7,0.0,0.4,0.1,0.1,1.4,99,100,0,78.3,24.1,24.1,0.1,15.9,10
QB_LT,Huyện Lệ Thủy - Quảng Bình,Quảng Bình,Lệ Thủy,17.2167,106.8,2026-03-12 14:00:52,openmeteo,high,2026-03-12T21:00,,20.8,28.0,19.6,21.7,85,98,67,87.7,1017.6,1020.8,1011.1,1016.5,4.3,12.4,0.5,5.0,5,47.4,0.1,2.9,0.1,0.7,16.3,93,100,9,80.6,24.1,24.1,6.5,21.3,0
QB_MC,Huyện Minh Hóa - Quảng Bình,Quảng Bình,Minh Hóa,17.7833,105.9167,2026-03-12 14:00:52,openmeteo,high,2026-03-12T21:00,,16.0,28.6,15.8,18.8,89,100,57,87.5,1018.9,1021.9,1011.4,1017.5,10.0,14.9,2.5,7.5,30,41.5,0.0,0.1,0.1,0.0,0.1,76,100,0,76.4,24.1,24.1,0.1,16.3,10
QB_QN,Huyện Quảng Ninh - Quảng Bình,Quảng Bình,Quảng Ninh,17.4,106.55,2026-03-12 14:00:52,openmeteo,high,2026-03-12T21:00,,18.9,28.6,17.7,20.6,89,100,60,87.0,1018.3,1021.3,1011.4,1017.1,5.3,11.9,1.5,5.5,28,76.2,0.0,0.4,0.1,0.2,4.2,100,100,36,83.6,24.1,24.1,2.7,21.3,10
QB_QH,Huyện Quảng Trạch - Quảng Bình,Quảng Bình,Quảng Trạch,17.8333,106.4167,2026-03-12 14:00:52,openmeteo,high,2026-03-12T21:00,,19.1,26.9,18.5,20.8,88,99,66,87.5,1018.1,1021.2,1011.0,1016.8,3.1,15.0,0.4,5.9,306,45.8,0.0,0.6,0.1,0.3,7.1,92,100,23,81.5,24.1,24.1,6.2,21.2,10
QB_TN,Huyện Tuyên Hóa - Quảng Bình,Quảng Bình,Tuyên Hóa,17.9,106.0,2026-03-12 14:00:52,openmeteo,high,2026-03-12T21:00,,18.8,29.2,18.3,21.0,92,99,63,87.9,1018.7,1021.7,1010.5,1017.1,4.3,10.5,0.4,4.4,318,348.0,0.0,0.6,0.1,0.2,4.1,84,100,0,78.8,24.1,24.1,3.2,22.3,10
QB_DH,Thành phố Đồng Hới - Quảng Bình,Quảng Bình,Đồng Hới,17.4687,106.6227,2026-03-12 14:00:50,openmeteo,high,2026-03-12T21:00,,19.3,27.5,18.3,20.7,87,98,64,87.3,1018.0,1021.1,1011.2,1016.8,5.2,12.3,0.4,4.9,34,56.3,0.0,0.4,0.1,0.2,5.6,97,100,37,83.2,24.1,24.1,2.7,21.3,10
QB_BAD,Thị xã Ba Đồn - Quảng Bình,Quảng Bình,Ba Đồn,17.75,106.4167,2026-03-12 14:00:50,openmeteo,high,2026-03-12T21:00,,20.5,27.2,19.0,21.7,85,98,69,86.9,1017.9,1021.0,1011.0,1016.6,2.3,14.4,0.4,5.1,309,31.6,0.0,0.6,0.1,0.2,4.7,92,100,0,77.5,24.1,24.1,6.2,21.2,0
QN_NT,Huyện Núi Thành - Quảng Nam,Quảng Nam,Núi Thành,15.4333,108.6667,2026-03-12 14:01:37,openmeteo,high,2026-03-12T21:00,,22.5,30.3,19.2,23.4,91,98,62,85.8,1017.0,1020.5,1011.4,1016.3,3.3,11.5,0.7,4.5,41,55.3,0.2,0.9,0.1,0.8,18.1,98,100,0,68.4,7.1,24.1,4.8,19.9,35
QN_DG,Huyện Điện Bàn - Quảng Nam,Quảng Nam,Điện Bàn,15.9,108.25,2026-03-12 14:01:37,openmeteo,high,2026-03-12T21:00,,21.7,28.5,19.8,23.0,90,98,59,84.9,1016.9,1020.3,1011.3,1016.1,5.1,15.1,0.4,5.6,39,14.4,0.1,1.3,0.1,0.9,22.2,100,100,7,71.8,11.8,24.1,6.1,19.6,35
QN_HT,Thành phố Hội An - Quảng Nam,Quảng Nam,Hội An,15.8833,108.3333,2026-03-12 14:01:37,openmeteo,high,2026-03-12T21:00,,21.5,28.3,19.6,22.8,90,98,59,84.9,1016.9,1020.3,1011.3,1016.1,5.1,15.1,0.4,5.6,39,14.4,0.1,1.3,0.1,0.9,22.2,100,100,7,71.8,11.8,24.1,6.1,19.6,35
QN_TC,Thành phố Tam Kỳ - Quảng Nam,Quảng Nam,Tam Kỳ,15.5667,108.4833,2026-03-12 14:01:36,openmeteo,high,2026-03-12T21:00,,21.3,28.2,19.1,22.4,91,100,61,86.0,1016.9,1020.4,1011.4,1016.1,3.8,13.1,0.4,4.5,49,59.5,0.1,1.1,0.1,1.0,25.1,100,100,6,73.0,7.1,24.1,4.8,19.9,35
QN_BT,Huyện Bình Sơn - Quảng Ngãi,Quảng Ngãi,Bình Sơn,15.3167,108.7667,2026-03-12 14:01:38,openmeteo,high,2026-03-12T21:00,,20.0,27.7,18.5,21.2,93,98,62,85.7,1017.0,1020.5,1011.7,1016.4,4.3,10.5,0.4,4.9,24,25.9,0.2,1.3,0.1,0.9,22.5,98,100,3,74.8,6.9,24.1,4.2,20.2,35
QN_LS,Huyện Lý Sơn - Quảng Ngãi,Quảng Ngãi,Lý Sơn,15.3833,109.1167,2026-03-12 14:01:38,openmeteo,high,2026-03-12T21:00,,23.9,25.0,23.0,23.8,74,86,66,78.1,1016.1,1019.8,1011.6,1015.7,15.5,17.1,0.4,8.9,44,25.9,0.1,1.6,0.1,1.0,24.9,94,100,0,55.5,14.2,24.1,5.4,21.0,25
QN_QN,Thành phố Quảng Ngãi - Quảng Ngãi,Quảng Ngãi,Quảng Ngãi,15.1167,108.8,2026-03-12 14:01:37,openmeteo,high,2026-03-12T21:00,,21.6,29.1,19.1,22.8,90,99,57,83.1,1016.6,1020.3,1011.6,1016.0,3.2,14.3,0.4,5.0,360,337.8,0.1,0.7,0.1,0.5,12.1,100,100,18,69.8,11.4,24.1,3.4,19.5,35
QN_LS2,Đảo Lý Sơn - Quảng Ngãi,Quảng Ngãi,Lý Sơn,15.3833,109.1167,2026-03-12 14:02:06,openmeteo,high,2026-03-12T21:00,,23.9,25.0,23.0,23.8,74,86,66,78.1,1016.1,1019.8,1011.6,1015.7,15.5,17.1,0.4,8.9,44,25.9,0.1,1.6,0.1,1.0,24.9,94,100,0,55.5,14.2,24.1,5.4,21.0,25
QN_BG,Huyện Ba Chẽ - Quảng Ninh,Quảng Ninh,Ba Chẽ,21.2833,107.1833,2026-03-12 14:00:40,openmeteo,high,2026-03-12T21:00,,18.3,26.1,16.0,20.3,75,100,46,80.0,1019.3,1022.9,1011.8,1017.8,2.3,17.1,0.8,5.9,72,101.9,0.0,0.4,0.1,0.1,1.4,72,100,0,77.9,24.1,24.1,18.6,24.0,0
QN_BQ,Huyện Bình Liêu - Quảng Ninh,Quảng Ninh,Bình Liêu,21.5333,107.4333,2026-03-12 14:00:40,openmeteo,high,2026-03-12T21:00,,17.1,24.3,13.8,19.2,83,97,47,80.2,1019.6,1023.2,1012.2,1018.2,2.3,16.6,2.3,7.2,72,119.9,0.0,0.0,0.0,0.0,0.0,29,100,0,74.3,24.1,24.1,0.2,22.8,0
QN_CT,Huyện Cô Tô - Quảng Ninh,Quảng Ninh,Cô Tô,20.9681,107.7639,2026-03-12 14:00:40,openmeteo,high,2026-03-12T21:00,,20.5,22.5,19.4,20.8,74,92,65,82.9,1018.9,1022.8,1012.2,1017.7,3.8,18.8,0.4,8.4,73,69.1,0.0,0.3,0.1,0.1,2.2,65,100,0,72.5,24.1,24.1,15.6,23.7,0
QN_HD,Huyện Hải Hà - Quảng Ninh,Quảng Ninh,Hải Hà,21.4333,107.7167,2026-03-12 14:00:40,openmeteo,high,2026-03-12T21:00,,15.8,21.7,14.3,17.6,81,100,56,84.3,1019.7,1023.6,1012.7,1018.5,4.2,13.6,0.5,6.0,20,110.8,0.0,0.2,0.1,0.1,2.3,41,100,0,79.1,24.1,24.1,7.1,22.7,0
QN_TY,Huyện Tiên Yên - Quảng Ninh,Quảng Ninh,Tiên Yên,21.3833,107.3833,2026-03-12 14:00:41,openmeteo,high,2026-03-12T21:00,,18.1,25.5,14.3,19.9,76,97,49,80.0,1019.2,1023.1,1011.9,1017.9,2.6,17.4,0.8,6.2,16,98.4,0.0,0.1,0.1,0.0,0.4,28,100,0,73.8,24.1,24.1,0.2,22.8,0
QN_VD,Huyện Vân Đồn - Quảng Ninh,Quảng Ninh,Vân Đồn,20.9551,107.4764,2026-03-12 14:00:41,openmeteo,high,2026-03-12T21:00,,18.6,26.1,15.7,20.4,72,100,53,82.0,1019.1,1023.0,1012.0,1017.9,2.5,16.6,0.7,6.3,352,59.7,0.0,0.6,0.1,0.2,5.9,15,100,0,76.5,24.1,24.1,16.8,23.9,0
QN_DH,Huyện Đầm Hà - Quảng Ninh,Quảng Ninh,Đầm Hà,21.3667,107.6,2026-03-12 14:00:41,openmeteo,high,2026-03-12T21:00,,17.2,25.0,15.4,20.6,88,98,51,82.1,1019.3,1023.2,1012.2,1018.1,4.3,18.4,1.8,6.9,360,75.5,0.0,0.3,0.1,0.1,2.1,23,100,0,75.9,24.1,24.1,15.7,23.8,10
QN_CP,Thành phố Cẩm Phả - Quảng Ninh,Quảng Ninh,Cẩm Phả,21.0167,107.3167,2026-03-12 14:00:38,openmeteo,high,2026-03-12T21:00,,16.9,25.2,15.3,20.0,79,95,52,79.4,1019.1,1022.6,1012.1,1017.7,4.0,19.1,0.0,7.6,27,75.2,0.0,0.5,0.1,0.1,1.9,38,100,1,72.9,24.1,24.1,16.8,23.9,0
QN_HL,Thành phố Hạ Long - Quảng Ninh,Quảng Ninh,Hạ Long,20.9582,107.0758,2026-03-12 14:00:38,openmeteo,high,2026-03-12T21:00,,19.8,25.8,17.1,21.7,77,95,54,79.6,1018.9,1022.4,1011.8,1017.5,3.1,20.6,1.8,8.4,45,77.8,0.0,0.4,0.1,0.0,1.1,48,100,1,73.1,24.1,24.1,14.8,24.0,0
QN_MC,Thành phố Móng Cái - Quảng Ninh,Quảng Ninh,Móng Cái,21.5247,107.9664,2026-03-12 14:00:39,openmeteo,high,2026-03-12T21:00,,18.8,25.3,16.4,20.4,78,94,44,80.2,1019.1,1023.4,1012.1,1018.1,3.3,13.7,0.4,5.2,319,45.4,0.0,0.6,0.1,0.3,6.4,40,100,0,74.0,24.1,24.1,7.1,22.7,0
QN_UB,Thành phố Uông Bí - Quảng Ninh,Quảng Ninh,Uông Bí,21.0361,106.7633,2026-03-12 14:00:39,openmeteo,high,2026-03-12T21:00,,19.6,26.0,16.3,21.5,79,96,50,80.5,1018.9,1022.4,1011.3,1017.3,1.5,19.9,0.4,8.1,76,95.9,0.0,0.4,0.1,0.1,1.5,55,100,29,78.3,24.1,24.1,21.5,24.1,0
QN_QY,Thị xã Quảng Yên - Quảng Ninh,Quảng Ninh,Quảng Yên,20.9333,106.8167,2026-03-12 14:00:39,openmeteo,high,2026-03-12T21:00,,19.7,25.2,18.0,21.2,76,95,55,80.7,1018.8,1022.4,1011.5,1017.4,2.2,18.1,1.8,8.4,81,89.5,0.0,0.2,0.1,0.0,0.8,62,100,26,77.8,24.1,24.1,21.5,24.1,0
QN_DK,Thị xã Đông Triều - Quảng Ninh,Quảng Ninh,Đông Triều,21.0833,106.5,2026-03-12 14:00:39,openmeteo,high,2026-03-12T21:00,,20.1,27.8,17.6,22.0,81,95,43,79.4,1018.9,1022.5,1010.5,1017.2,2.5,17.7,0.4,6.8,172,121.4,0.0,0.5,0.1,0.1,2.0,71,100,21,82.1,24.1,24.1,12.3,24.0,0
QN_CT,Đảo Cô Tô - Quảng Ninh,Quảng Ninh,Cô Tô,20.9681,107.7639,2026-03-12 14:02:03,openmeteo,high,2026-03-12T21:00,,20.5,22.5,19.4,20.8,74,92,65,82.9,1018.9,1022.8,1012.2,1017.7,3.8,18.8,0.4,8.4,73,69.1,0.0,0.3,0.1,0.1,2.2,65,100,0,72.5,24.1,24.1,15.6,23.7,0
QN_VD,Đảo Vân Đồn - Quảng Ninh,Quảng Ninh,Vân Đồn,20.9551,107.4764,2026-03-12 14:02:03,openmeteo,high,2026-03-12T21:00,,18.6,26.1,15.7,20.4,72,100,53,82.0,1019.1,1023.0,1012.0,1017.9,2.5,16.6,0.7,6.3,352,59.7,0.0,0.6,0.1,0.2,5.9,15,100,0,76.5,24.1,24.1,16.8,23.9,0
QT_CL,Huyện Cam Lộ - Quảng Trị,Quảng Trị,Cam Lộ,16.8,106.9833,2026-03-12 14:00:49,openmeteo,high,2026-03-12T21:00,,19.8,29.2,18.5,21.4,88,99,54,85.9,1017.6,1020.9,1011.0,1016.5,5.5,14.4,1.1,6.1,11,26.7,0.0,0.6,0.1,0.3,7.3,97,100,5,77.5,24.1,24.1,2.1,20.6,10
QT_CC,Huyện Cồn Cỏ - Quảng Trị,Quảng Trị,Cồn Cỏ,17.1597,107.3408,2026-03-12 14:00:49,openmeteo,high,2026-03-12T21:00,,22.2,24.0,22.0,23.1,85,86,72,80.9,1017.1,1020.4,1011.0,1016.1,15.6,27.0,9.4,18.3,52,91.5,0.1,0.9,0.1,1.1,25.9,86,100,0,67.1,23.4,24.1,5.4,20.7,25
QT_GL,Huyện Gio Linh - Quảng Trị,Quảng Trị,Gio Linh,16.9167,107.05,2026-03-12 14:00:49,openmeteo,high,2026-03-12T21:00,,20.7,29.4,18.8,22.1,90,100,56,87.1,1017.4,1020.6,1011.0,1016.3,3.8,14.2,0.5,5.9,343,21.0,0.1,0.9,0.1,0.6,14.2,100,100,12,79.5,24.1,24.1,3.6,20.5,10
QT_HL,Huyện Hướng Hóa - Quảng Trị,Quảng Trị,Hướng Hóa,16.7,106.6667,2026-03-12 14:00:50,openmeteo,high,2026-03-12T21:00,,20.0,32.9,19.0,22.8,77,89,37,69.6,1016.2,1019.4,1009.6,1015.3,9.2,19.9,1.8,10.5,48,63.4,0.0,0.0,0.0,0.0,0.0,55,94,0,40.9,2.1,24.1,0.1,13.1,0
QT_HH,Huyện Hải Lăng - Quảng Trị,Quảng Trị,Hải Lăng,16.7,107.25,2026-03-12 14:00:49,openmeteo,high,2026-03-12T21:00,,21.4,27.2,20.1,22.4,87,100,70,87.1,1017.0,1020.3,1011.0,1016.1,5.0,17.5,0.5,7.5,30,73.5,0.0,0.9,0.1,0.8,19.1,100,100,10,70.0,21.6,24.1,3.3,21.2,10
QT_TL,Huyện Triệu Phong - Quảng Trị,Quảng Trị,Triệu Phong,16.7833,107.1667,2026-03-12 14:00:50,openmeteo,high,2026-03-12T21:00,,20.6,28.9,18.5,22.1,90,100,58,86.9,1017.2,1020.4,1010.9,1016.1,2.3,15.8,0.0,6.1,321,29.3,0.0,1.0,0.1,0.6,15.2,100,100,6,74.1,21.6,24.1,3.3,21.2,10
QT_VL,Huyện Vĩnh Linh - Quảng Trị,Quảng Trị,Vĩnh Linh,17.0,106.9333,2026-03-12 14:00:51,openmeteo,high,2026-03-12T21:00,,18.9,27.8,18.2,20.4,90,99,61,88.8,1018.0,1021.2,1011.4,1016.9,4.0,13.0,1.0,5.7,27,83.5,0.0,1.9,0.1,0.4,8.6,94,100,0,79.9,24.1,24.1,3.6,20.5,10
QT_DK,Huyện Đa Krông - Quảng Trị,Quảng Trị,Đa Krông,16.5556,106.9722,2026-03-12 14:00:49,openmeteo,high,2026-03-12T21:00,,19.0,29.2,16.9,20.9,89,100,53,84.8,1017.5,1020.3,1011.1,1016.3,10.0,18.2,1.5,8.8,60,61.7,0.0,0.2,0.1,0.0,0.3,95,100,7,72.4,0.2,24.1,0.1,15.7,10
QT_DH,Thành phố Đông Hà - Quảng Trị,Quảng Trị,Đông Hà,16.816,107.1,2026-03-12 14:00:48,openmeteo,high,2026-03-12T21:00,,20.1,28.8,18.2,21.5,90,100,56,87.1,1017.4,1020.6,1011.0,1016.3,3.8,14.2,0.5,5.9,343,21.0,0.1,0.9,0.1,0.6,14.2,100,100,12,79.5,24.1,24.1,2.1,20.6,10
QT_QH,Thị xã Quảng Trị - Quảng Trị,Quảng Trị,Quảng Trị,16.75,107.1833,2026-03-12 14:00:48,openmeteo,high,2026-03-12T21:00,,20.6,29.0,18.5,22.1,90,100,58,86.9,1017.2,1020.4,1010.9,1016.1,2.3,15.8,0.0,6.1,321,29.3,0.0,1.0,0.1,0.6,15.2,100,100,6,74.1,21.6,24.1,3.3,21.2,10
QT_CC2,Đảo Cồn Cỏ - Quảng Trị,Quảng Trị,Cồn Cỏ,17.1597,107.3408,2026-03-12 14:02:06,openmeteo,high,2026-03-12T21:00,,22.2,24.0,22.0,23.1,85,86,72,80.9,1017.1,1020.4,1011.0,1016.1,15.6,27.0,9.4,18.3,52,91.5,0.1,0.9,0.1,1.1,25.9,86,100,0,67.1,23.4,24.1,5.4,20.7,25
ST_CL,Huyện Châu Thành - Sóc Trăng,Sóc Trăng,Châu Thành,9.7,105.9,2026-03-12 14:01:30,openmeteo,high,2026-03-12T21:00,,25.2,33.0,23.0,27.3,80,90,43,69.4,1011.3,1015.2,1008.1,1011.5,10.7,23.8,6.1,13.7,104,96.6,0.0,0.0,0.0,0.0,0.0,55,86,2,52.0,24.1,24.1,24.1,24.1,5
ST_CT,Huyện Cù Lao Dung - Sóc Trăng,Sóc Trăng,Cù Lao Dung,9.6667,106.1667,2026-03-12 14:01:30,openmeteo,high,2026-03-12T21:00,,25.4,33.1,23.7,27.4,80,87,42,68.8,1011.4,1015.2,1008.4,1011.6,12.3,27.4,7.5,16.4,93,91.9,0.0,0.0,0.0,0.0,0.0,63,89,0,50.3,24.1,24.1,24.1,24.1,5
ST_KS,Huyện Kế Sách - Sóc Trăng,Sóc Trăng,Kế Sách,9.8167,105.9833,2026-03-12 14:01:31,openmeteo,high,2026-03-12T21:00,,25.4,32.9,23.3,27.4,80,92,43,69.5,1011.3,1015.3,1008.1,1011.6,12.7,21.4,5.8,13.3,105,96.3,0.0,0.0,0.0,0.0,0.0,55,90,8,52.9,24.1,24.1,24.1,24.1,5
ST_LT,Huyện Long Phú - Sóc Trăng,Sóc Trăng,Long Phú,9.6167,106.1167,2026-03-12 14:01:31,openmeteo,high,2026-03-12T21:00,,25.4,33.1,23.7,27.4,80,87,42,68.8,1011.4,1015.2,1008.4,1011.6,12.3,27.4,7.5,16.4,93,91.9,0.0,0.0,0.0,0.0,0.0,63,89,0,50.3,24.1,24.1,24.1,24.1,5
ST_MD,Huyện Mỹ Tú - Sóc Trăng,Sóc Trăng,Mỹ Tú,9.6333,105.8167,2026-03-12 14:01:31,openmeteo,high,2026-03-12T21:00,,25.2,32.7,23.2,27.2,80,91,42,70.0,1011.3,1015.2,1008.1,1011.6,11.4,25.3,6.6,14.5,101,95.4,0.0,0.0,0.0,0.0,0.0,58,86,4,51.2,24.1,24.1,24.1,24.1,5
ST_MX,Huyện Mỹ Xuyên - Sóc Trăng,Sóc Trăng,Mỹ Xuyên,9.5333,105.9833,2026-03-12 14:01:32,openmeteo,high,2026-03-12T21:00,,25.3,32.7,24.0,27.3,81,88,45,70.3,1011.4,1015.1,1008.5,1011.6,12.2,29.2,7.9,17.3,92,91.4,0.0,0.0,0.0,0.0,0.0,58,100,0,49.5,24.1,24.1,24.1,24.1,5
ST_TN,Huyện Thạnh Trị - Sóc Trăng,Sóc Trăng,Thạnh Trị,9.4667,105.7167,2026-03-12 14:01:32,openmeteo,high,2026-03-12T21:00,,25.2,32.6,23.4,27.3,81,90,43,70.2,1011.3,1015.1,1008.1,1011.5,12.3,26.7,6.4,15.3,97,94.3,0.0,0.1,0.1,0.0,0.1,41,95,0,53.1,24.1,24.1,24.1,24.1,5
ST_TP,Huyện Trần Đề - Sóc Trăng,Sóc Trăng,Trần Đề,9.5,106.0833,2026-03-12 14:01:32,openmeteo,high,2026-03-12T21:00,,25.3,32.0,24.4,27.1,82,85,48,71.7,1011.4,1015.2,1008.7,1011.8,13.3,29.8,9.8,18.8,90,90.2,0.0,0.0,0.0,0.0,0.0,58,87,3,51.1,24.1,24.1,24.1,24.1,5
ST_ST,Thành phố Sóc Trăng - Sóc Trăng,Sóc Trăng,Sóc Trăng,9.6025,105.9739,2026-03-12 14:01:30,openmeteo,high,2026-03-12T21:00,,25.4,32.8,23.6,27.3,80,89,43,69.1,1011.4,1015.1,1008.3,1011.6,12.3,27.4,7.2,16.1,93,92.7,0.0,0.0,0.0,0.0,0.0,64,88,0,49.1,24.1,24.1,24.1,24.1,5
ST_NG,Thị xã Ngã Năm - Sóc Trăng,Sóc Trăng,Ngã Năm,9.5667,105.85,2026-03-12 14:01:31,openmeteo,high,2026-03-12T21:00,,25.2,32.7,23.2,27.2,80,91,42,70.0,1011.3,1015.2,1008.1,1011.6,11.4,25.3,6.6,14.5,101,95.4,0.0,0.0,0.0,0.0,0.0,58,86,4,51.2,24.1,24.1,24.1,24.1,5
ST_VC,Thị xã Vĩnh Châu - Sóc Trăng,Sóc Trăng,Vĩnh Châu,9.3333,105.9833,2026-03-12 14:01:30,openmeteo,high,2026-03-12T21:00,,25.5,32.2,24.7,27.3,81,85,47,70.8,1011.3,1015.1,1008.6,1011.7,14.4,29.2,9.4,18.7,89,89.7,0.0,0.0,0.0,0.0,0.0,56,88,0,49.1,24.1,24.1,24.1,24.1,5
SL_ML,Huyện Mộc Châu - Sơn La,Sơn La,Mộc Châu,20.85,104.6333,2026-03-12 14:01:44,openmeteo,high,2026-03-12T21:00,,14.8,27.6,12.2,18.1,86,98,48,81.2,1019.9,1023.0,1010.1,1017.6,4.0,16.8,0.8,6.0,90,128.6,0.0,1.2,0.1,0.2,4.8,98,100,35,77.3,24.1,24.1,0.5,21.5,10
SL_YB,Huyện Yên Châu - Sơn La,Sơn La,Yên Châu,21.05,104.3,2026-03-12 14:01:44,openmeteo,high,2026-03-12T21:00,,19.2,31.4,16.0,21.8,75,98,49,77.9,1019.0,1022.3,1009.2,1016.8,5.7,16.2,2.6,6.0,55,94.1,0.0,0.9,0.1,0.3,6.6,100,100,0,76.9,24.1,24.1,8.1,23.6,0
SL_SL,Thành phố Sơn La - Sơn La,Sơn La,Sơn La,21.3256,103.9189,2026-03-12 14:01:43,openmeteo,high,2026-03-12T21:00,,18.4,29.6,14.5,20.3,70,95,49,78.1,1018.5,1022.1,1009.3,1016.4,4.9,19.9,0.8,5.8,144,144.2,0.0,0.5,0.1,0.2,4.8,95,100,0,78.4,24.1,24.1,8.6,23.5,0
HCM_BC,Huyện Bình Chánh - TP Hồ Chí Minh,TP Hồ Chí Minh,Bình Chánh,10.7269,106.5672,2026-03-12 14:00:30,openmeteo,high,2026-03-12T21:00,,25.6,35.0,23.4,27.6,76,91,34,69.2,1010.5,1015.5,1007.9,1011.4,11.9,22.3,0.4,8.4,151,112.4,0.0,0.3,0.1,0.0,0.9,22,100,0,52.6,24.1,24.1,24.1,24.1,5
HCM_CG,Huyện Cần Giờ - TP Hồ Chí Minh,TP Hồ Chí Minh,Cần Giờ,10.4111,106.9547,2026-03-12 14:00:30,openmeteo,high,2026-03-12T21:00,,26.1,32.7,24.4,27.4,74,81,45,68.9,1010.7,1015.5,1008.5,1011.6,13.3,19.5,0.8,11.3,109,102.1,0.0,0.1,0.1,0.0,0.2,37,87,5,51.4,24.1,24.1,24.1,24.1,5
HCM_CC,Huyện Củ Chi - TP Hồ Chí Minh,TP Hồ Chí Minh,Củ Chi,10.9733,106.4939,2026-03-12 14:00:29,openmeteo,high,2026-03-12T21:00,,26.1,35.6,22.5,27.7,73,93,34,68.2,1010.1,1015.6,1007.3,1011.4,13.5,18.5,0.0,6.5,164,106.4,0.0,0.4,0.1,0.0,0.8,17,84,0,45.8,24.1,24.1,18.7,24.0,5
HCM_HM,Huyện Hóc Môn - TP Hồ Chí Minh,TP Hồ Chí Minh,Hóc Môn,10.8894,106.5953,2026-03-12 14:00:29,openmeteo,high,2026-03-12T21:00,,25.9,35.5,23.0,27.8,75,91,32,68.1,1010.3,1015.5,1007.6,1011.4,12.2,18.5,0.4,7.1,156,113.7,0.0,0.3,0.1,0.0,0.9,25,91,0,49.2,24.1,24.1,18.7,24.0,5
HCM_NB,Huyện Nhà Bè - TP Hồ Chí Minh,TP Hồ Chí Minh,Nhà Bè,10.6956,106.735,2026-03-12 14:00:30,openmeteo,high,2026-03-12T21:00,,25.7,34.8,23.5,27.7,76,91,36,68.1,1010.5,1015.5,1007.9,1011.5,12.0,21.9,0.7,8.5,141,114.9,0.0,0.2,0.1,0.0,0.5,28,100,0,51.7,24.1,24.1,24.1,24.1,5
HCM_1,Quận 1 - TP Hồ Chí Minh,TP Hồ Chí Minh,Quận 1,10.7757,106.7004,2026-03-12 14:00:24,openmeteo,high,2026-03-12T21:00,,25.7,34.8,23.5,27.6,76,91,36,68.1,1010.5,1015.5,1007.9,1011.5,12.0,21.9,0.7,8.5,141,114.9,0.0,0.2,0.1,0.0,0.5,28,100,0,51.7,24.1,24.1,24.1,24.1,5
HCM_10,Quận 10 - TP Hồ Chí Minh,TP Hồ Chí Minh,Quận 10,10.7679,106.6668,2026-03-12 14:00:26,openmeteo,high,2026-03-12T21:00,,25.6,35.0,23.3,27.6,76,91,34,69.2,1010.5,1015.5,1007.9,1011.4,11.9,22.3,0.4,8.4,151,112.4,0.0,0.3,0.1,0.0,0.9,22,100,0,52.6,24.1,24.1,24.1,24.1,5
HCM_11,Quận 11 - TP Hồ Chí Minh,TP Hồ Chí Minh,Quận 11,10.7639,106.6474,2026-03-12 14:00:27,openmeteo,high,2026-03-12T21:00,,25.6,35.0,23.3,27.6,76,91,34,69.2,1010.5,1015.5,1007.9,1011.4,11.9,22.3,0.4,8.4,151,112.4,0.0,0.3,0.1,0.0,0.9,22,100,0,52.6,24.1,24.1,24.1,24.1,5
HCM_12,Quận 12 - TP Hồ Chí Minh,TP Hồ Chí Minh,Quận 12,10.8642,106.6543,2026-03-12 14:00:28,openmeteo,high,2026-03-12T21:00,,25.9,35.5,23.0,27.8,75,91,32,68.1,1010.3,1015.5,1007.6,1011.4,12.2,18.5,0.4,7.1,156,113.7,0.0,0.3,0.1,0.0,0.9,25,91,0,49.2,24.1,24.1,24.1,24.1,5
HCM_2,Quận 2 - TP Hồ Chí Minh,TP Hồ Chí Minh,Quận 2,10.7872,106.7498,2026-03-12 14:00:25,openmeteo,high,2026-03-12T21:00,,25.7,34.8,23.5,27.7,76,91,36,68.1,1010.5,1015.5,1007.9,1011.5,12.0,21.9,0.7,8.5,141,114.9,0.0,0.2,0.1,0.0,0.5,28,100,0,51.7,24.1,24.1,24.1,24.1,5
HCM_3,Quận 3 - TP Hồ Chí Minh,TP Hồ Chí Minh,Quận 3,10.7823,106.6848,2026-03-12 14:00:25,openmeteo,high,2026-03-12T21:00,,25.6,35.0,23.3,27.6,76,91,34,69.2,1010.5,1015.5,1007.9,1011.4,11.9,22.3,0.4,8.4,151,112.4,0.0,0.3,0.1,0.0,0.9,22,100,0,52.6,24.1,24.1,24.1,24.1,5
HCM_4,Quận 4 - TP Hồ Chí Minh,TP Hồ Chí Minh,Quận 4,10.7642,106.7053,2026-03-12 14:00:25,openmeteo,high,2026-03-12T21:00,,25.7,34.7,23.5,27.6,76,91,36,68.1,1010.5,1015.5,1007.9,1011.5,12.0,21.9,0.7,8.5,141,114.9,0.0,0.2,0.1,0.0,0.5,28,100,0,51.7,24.1,24.1,24.1,24.1,5
HCM_5,Quận 5 - TP Hồ Chí Minh,TP Hồ Chí Minh,Quận 5,10.754,106.669,2026-03-12 14:00:25,openmeteo,high,2026-03-12T21:00,,25.5,34.9,23.3,27.5,76,91,34,69.2,1010.5,1015.5,1007.9,1011.4,11.9,22.3,0.4,8.4,151,112.4,0.0,0.3,0.1,0.0,0.9,22,100,0,52.6,24.1,24.1,24.1,24.1,5
HCM_6,Quận 6 - TP Hồ Chí Minh,TP Hồ Chí Minh,Quận 6,10.7464,106.6492,2026-03-12 14:00:26,openmeteo,high,2026-03-12T21:00,,25.6,35.0,23.3,27.6,76,91,34,69.2,1010.5,1015.5,1007.9,1011.4,11.9,22.3,0.4,8.4,151,112.4,0.0,0.3,0.1,0.0,0.9,22,100,0,52.6,24.1,24.1,24.1,24.1,5
HCM_7,Quận 7 - TP Hồ Chí Minh,TP Hồ Chí Minh,Quận 7,10.7329,106.7269,2026-03-12 14:00:27,openmeteo,high,2026-03-12T21:00,,25.7,34.8,23.5,27.7,76,91,36,68.1,1010.5,1015.5,1007.9,1011.5,12.0,21.9,0.7,8.5,141,114.9,0.0,0.2,0.1,0.0,0.5,28,100,0,51.7,24.1,24.1,24.1,24.1,5
HCM_8,Quận 8 - TP Hồ Chí Minh,TP Hồ Chí Minh,Quận 8,10.7241,106.6286,2026-03-12 14:00:27,openmeteo,high,2026-03-12T21:00,,25.6,35.0,23.3,27.6,76,91,34,69.2,1010.5,1015.5,1007.9,1011.4,11.9,22.3,0.4,8.4,151,112.4,0.0,0.3,0.1,0.0,0.9,22,100,0,52.6,24.1,24.1,24.1,24.1,5
HCM_9,Quận 9 - TP Hồ Chí Minh,TP Hồ Chí Minh,Quận 9,10.8428,106.8287,2026-03-12 14:00:27,openmeteo,high,2026-03-12T21:00,,25.8,35.5,22.9,27.8,75,93,32,68.1,1010.4,1015.5,1007.7,1011.4,12.0,18.7,0.7,6.7,147,123.5,0.0,0.7,0.1,0.1,2.0,23,92,0,51.2,24.1,24.1,24.1,24.1,5
HCM_BT2,Quận Bình Thạnh - TP Hồ Chí Minh,TP Hồ Chí Minh,Bình Thạnh,10.801,106.6959,2026-03-12 14:00:29,openmeteo,high,2026-03-12T21:00,,25.7,34.7,23.5,27.6,76,91,36,68.1,1010.5,1015.5,1007.9,1011.5,12.0,21.9,0.7,8.5,141,114.9,0.0,0.2,0.1,0.0,0.5,28,100,0,51.7,24.1,24.1,24.1,24.1,5
HCM_BT,Quận Bình Tân - TP Hồ Chí Minh,TP Hồ Chí Minh,Bình Tân,10.7654,106.6032,2026-03-12 14:00:28,openmeteo,high,2026-03-12T21:00,,25.6,35.0,23.3,27.6,76,91,34,69.2,1010.5,1015.5,1007.9,1011.4,11.9,22.3,0.4,8.4,151,112.4,0.0,0.3,0.1,0.0,0.9,22,100,0,52.6,24.1,24.1,24.1,24.1,5
HCM_GB,Quận Gò Vấp - TP Hồ Chí Minh,TP Hồ Chí Minh,Gò Vấp,10.8383,106.6653,2026-03-12 14:00:28,openmeteo,high,2026-03-12T21:00,,25.9,35.5,22.9,27.7,75,91,32,68.1,1010.3,1015.5,1007.6,1011.4,12.2,18.5,0.4,7.1,156,113.7,0.0,0.3,0.1,0.0,0.9,25,91,0,49.2,24.1,24.1,24.1,24.1,5
HCM_PN,Quận Phú Nhuận - TP Hồ Chí Minh,TP Hồ Chí Minh,Phú Nhuận,10.7992,106.6753,2026-03-12 14:00:29,openmeteo,high,2026-03-12T21:00,,25.5,34.9,23.3,27.5,76,91,34,69.2,1010.5,1015.5,1007.9,1011.4,11.9,22.3,0.4,8.4,151,112.4,0.0,0.3,0.1,0.0,0.9,22,100,0,52.6,24.1,24.1,24.1,24.1,5
HCM_TB,Quận Tân Bình - TP Hồ Chí Minh,TP Hồ Chí Minh,Tân Bình,10.8014,106.6526,2026-03-12 14:00:28,openmeteo,high,2026-03-12T21:00,,25.6,35.0,23.3,27.6,76,91,34,69.2,1010.5,1015.5,1007.9,1011.4,11.9,22.3,0.4,8.4,151,112.4,0.0,0.3,0.1,0.0,0.9,22,100,0,52.6,24.1,24.1,24.1,24.1,5
HCM_TP,Quận Tân Phú - TP Hồ Chí Minh,TP Hồ Chí Minh,Tân Phú,10.7902,106.6289,2026-03-12 14:00:28,openmeteo,high,2026-03-12T21:00,,25.6,35.0,23.3,27.6,76,91,34,69.2,1010.5,1015.5,1007.9,1011.4,11.9,22.3,0.4,8.4,151,112.4,0.0,0.3,0.1,0.0,0.9,22,100,0,52.6,24.1,24.1,24.1,24.1,5
HCM_TD,Thành phố Thủ Đức - TP Hồ Chí Minh,TP Hồ Chí Minh,Thủ Đức,10.8494,106.7717,2026-03-12 14:00:30,openmeteo,high,2026-03-12T21:00,,25.8,35.4,22.9,27.7,75,91,32,68.1,1010.3,1015.5,1007.6,1011.4,12.2,18.5,0.4,7.1,156,113.7,0.0,0.3,0.1,0.0,0.9,25,91,0,49.2,24.1,24.1,24.1,24.1,5
TH_NC,Huyện Nghi Sơn - Thanh Hóa,Thanh Hóa,Nghi Sơn,19.45,105.7833,2026-03-12 14:01:34,openmeteo,high,2026-03-12T21:00,,19.4,28.1,17.3,21.0,81,99,61,84.3,1018.9,1022.0,1010.5,1017.2,1.8,13.2,0.5,4.8,349,72.7,0.0,0.3,0.1,0.0,1.0,98,100,25,80.2,24.1,24.1,8.9,23.8,0
TH_TH,Thành phố Thanh Hóa - Thanh Hóa,Thanh Hóa,Thanh Hóa,19.8,105.7667,2026-03-12 14:01:35,openmeteo,high,2026-03-12T21:00,,19.5,28.0,17.1,20.9,80,100,58,84.1,1019.0,1022.1,1010.4,1017.2,1.1,13.5,0.4,4.7,342,107.7,0.0,0.3,0.1,0.1,2.0,97,100,28,81.6,24.1,24.1,11.0,23.5,0
TH_BT,Thị xã Bỉm Sơn - Thanh Hóa,Thanh Hóa,Bỉm Sơn,20.0781,105.8603,2026-03-12 14:01:34,openmeteo,high,2026-03-12T21:00,,19.6,27.3,17.5,21.3,82,100,54,83.5,1018.9,1022.1,1010.5,1017.2,0.5,14.7,0.5,5.1,45,100.1,0.0,0.3,0.1,0.0,1.0,99,100,34,82.3,24.1,24.1,17.0,24.0,0
TH_SL,Thị xã Sầm Sơn - Thanh Hóa,Thanh Hóa,Sầm Sơn,19.7333,105.9,2026-03-12 14:01:34,openmeteo,high,2026-03-12T21:00,,19.7,28.0,17.7,21.4,82,100,56,83.2,1018.8,1022.0,1010.4,1017.1,0.4,13.3,0.4,4.3,360,96.1,0.0,0.3,0.1,0.1,2.2,100,100,21,79.4,24.1,24.1,11.0,23.5,0
TB_HH,Huyện Hưng Hà - Thái Bình,Thái Bình,Hưng Hà,20.6,106.2167,2026-03-12 14:00:42,openmeteo,high,2026-03-12T21:00,,18.8,27.3,17.5,21.2,85,99,55,84.3,1018.9,1022.3,1010.5,1017.2,3.2,18.6,0.7,7.8,153,113.4,0.0,0.5,0.1,0.1,3.6,74,100,26,82.9,24.1,24.1,11.6,23.9,0
TB_KL,Huyện Kiến Xương - Thái Bình,Thái Bình,Kiến Xương,20.4,106.4167,2026-03-12 14:00:42,openmeteo,high,2026-03-12T21:00,,19.0,26.2,17.0,20.9,84,99,57,85.1,1018.8,1022.2,1010.9,1017.2,1.1,19.8,1.1,8.1,90,96.0,0.0,0.6,0.1,0.1,3.6,89,100,31,80.9,24.1,24.1,18.0,24.0,0
TB_QH,Huyện Quỳnh Phụ - Thái Bình,Thái Bình,Quỳnh Phụ,20.65,106.3333,2026-03-12 14:00:43,openmeteo,high,2026-03-12T21:00,,18.3,27.4,17.0,20.9,86,99,54,84.8,1018.9,1022.3,1010.5,1017.2,3.4,19.7,0.5,8.6,162,110.1,0.0,0.4,0.1,0.2,4.1,81,100,31,83.9,24.1,24.1,15.2,24.0,10
TB_TT,Huyện Thái Thụy - Thái Bình,Thái Bình,Thái Thụy,20.5333,106.5333,2026-03-12 14:00:43,openmeteo,high,2026-03-12T21:00,,18.6,26.5,16.8,20.9,85,99,59,85.1,1018.8,1022.2,1010.8,1017.2,1.5,21.0,1.5,8.9,135,97.9,0.0,0.4,0.1,0.2,4.8,79,100,31,82.6,24.1,24.1,18.0,24.0,0
TB_VT,Huyện Vũ Thư - Thái Bình,Thái Bình,Vũ Thư,20.4333,106.2833,2026-03-12 14:00:43,openmeteo,high,2026-03-12T21:00,,18.9,26.6,16.9,21.0,86,99,55,84.9,1018.9,1022.2,1010.8,1017.2,1.1,19.5,1.1,7.7,72,98.0,0.0,0.4,0.1,0.1,1.9,93,100,28,81.6,24.1,24.1,11.6,23.9,10
TB_DH,Huyện Đông Hưng - Thái Bình,Thái Bình,Đông Hưng,20.55,106.35,2026-03-12 14:00:42,openmeteo,high,2026-03-12T21:00,,18.9,26.4,17.0,20.9,85,99,58,85.2,1018.9,1022.2,1010.8,1017.2,1.5,19.1,1.4,7.9,135,99.3,0.0,0.7,0.1,0.2,4.1,86,100,36,82.4,24.1,24.1,11.6,23.9,0
TB_TP,Thành phố Thái Bình - Thái Bình,Thái Bình,Thái Bình,20.4461,106.3366,2026-03-12 14:00:41,openmeteo,high,2026-03-12T21:00,,18.8,26.4,16.9,20.9,85,99,58,85.2,1018.9,1022.2,1010.8,1017.2,1.5,19.1,1.4,7.9,135,99.3,0.0,0.7,0.1,0.2,4.1,86,100,36,82.4,24.1,24.1,11.6,23.9,0
TN_DD,Huyện Định Hóa - Thái Nguyên,Thái Nguyên,Định Hóa,21.9,105.6333,2026-03-12 14:01:49,openmeteo,high,2026-03-12T21:00,,19.0,24.7,16.1,20.1,80,96,49,82.3,1018.9,1022.8,1010.4,1017.3,3.0,12.8,1.1,5.4,346,106.1,0.0,0.5,0.1,0.1,2.7,86,100,45,89.7,24.1,24.1,16.9,23.9,0
TN_SC,Thành phố Sông Công - Thái Nguyên,Thái Nguyên,Sông Công,21.4833,105.85,2026-03-12 14:01:49,openmeteo,high,2026-03-12T21:00,,18.8,27.3,16.5,20.9,83,96,46,80.8,1018.9,1022.7,1010.0,1017.2,5.9,13.0,0.4,6.6,142,147.4,0.0,1.4,0.1,0.2,6.0,81,100,51,88.0,24.1,24.1,16.4,23.9,0
TN_TN,Thành phố Thái Nguyên - Thái Nguyên,Thái Nguyên,Thái Nguyên,21.5928,105.8442,2026-03-12 14:01:49,openmeteo,high,2026-03-12T21:00,,19.5,27.7,15.8,21.5,70,100,44,79.0,1018.5,1022.6,1009.9,1017.1,5.2,17.8,0.8,7.6,115,122.4,0.0,1.1,0.1,0.1,3.2,47,100,20,87.2,24.1,24.1,16.4,23.9,0
TTH_AD,Huyện A Lưới - Thừa Thiên Huế,Thừa Thiên Huế,A Lưới,16.2333,107.3,2026-03-12 14:00:46,openmeteo,high,2026-03-12T21:00,,17.7,28.3,15.6,19.5,96,100,57,85.5,1018.0,1020.9,1011.9,1017.0,5.2,16.6,1.5,7.0,78,87.0,0.1,0.8,0.1,0.2,3.6,100,100,0,72.2,0.1,24.1,0.1,12.7,10
TTH_NL,Huyện Nam Đông - Thừa Thiên Huế,Thừa Thiên Huế,Nam Đông,16.1667,107.7,2026-03-12 14:00:47,openmeteo,high,2026-03-12T21:00,,20.1,29.3,16.5,21.6,96,100,53,86.7,1017.3,1020.5,1011.0,1016.3,2.2,11.6,0.4,4.0,351,66.9,0.1,1.5,0.1,0.8,19.5,100,100,0,70.8,21.6,24.1,3.7,20.6,35
TTH_PD,Huyện Phong Điền - Thừa Thiên Huế,Thừa Thiên Huế,Phong Điền,16.5833,107.35,2026-03-12 14:00:47,openmeteo,high,2026-03-12T21:00,,21.2,27.7,19.0,22.3,92,100,66,87.0,1017.0,1020.2,1010.9,1016.0,4.3,19.4,0.7,7.5,66,100.6,0.2,1.0,0.1,0.9,22.4,95,100,0,64.1,1.0,24.1,0.2,18.2,35
TTH_PL,Huyện Phú Lộc - Thừa Thiên Huế,Thừa Thiên Huế,Phú Lộc,16.2667,107.9,2026-03-12 14:00:48,openmeteo,high,2026-03-12T21:00,,21.4,30.1,17.7,22.7,94,99,56,84.8,1017.1,1020.3,1011.0,1016.1,2.4,13.0,0.0,4.4,27,81.4,0.1,1.2,0.1,0.6,15.0,100,100,0,64.1,9.2,24.1,3.4,20.5,35
TTH_QD,Huyện Quảng Điền - Thừa Thiên Huế,Thừa Thiên Huế,Quảng Điền,16.5833,107.5,2026-03-12 14:00:48,openmeteo,high,2026-03-12T21:00,,21.0,27.8,17.0,21.9,92,100,64,87.4,1017.1,1020.2,1010.9,1016.0,3.3,15.3,0.7,5.6,77,113.3,0.2,1.2,0.1,1.0,22.8,95,100,0,67.6,9.7,24.1,7.8,20.7,35
TTH_H,Thành phố Huế - Thừa Thiên Huế,Thừa Thiên Huế,Huế,16.4637,107.5909,2026-03-12 14:00:46,openmeteo,high,2026-03-12T21:00,,21.4,26.9,18.5,22.3,92,100,69,86.9,1016.9,1020.2,1010.8,1015.9,6.6,18.8,0.5,8.3,77,96.6,0.2,1.7,0.1,1.1,25.7,95,100,0,63.4,9.7,24.1,7.8,20.7,35
TTH_HL,Thị xã Hương Thủy - Thừa Thiên Huế,Thừa Thiên Huế,Hương Thủy,16.4167,107.7167,2026-03-12 14:00:46,openmeteo,high,2026-03-12T21:00,,21.2,28.5,17.0,22.4,93,100,63,85.4,1017.0,1020.2,1010.8,1015.9,3.2,16.3,0.4,5.4,63,89.6,0.1,1.5,0.1,0.9,22.0,100,100,0,63.5,9.8,24.1,6.8,21.7,35
TTH_HT,Thị xã Hương Trà - Thừa Thiên Huế,Thừa Thiên Huế,Hương Trà,16.5,107.4833,2026-03-12 14:00:46,openmeteo,high,2026-03-12T21:00,,21.1,27.8,17.0,21.9,92,100,64,87.4,1017.1,1020.2,1010.9,1016.0,3.3,15.3,0.7,5.6,77,113.3,0.2,1.2,0.1,1.0,22.8,95,100,0,67.6,9.7,24.1,7.8,20.7,35
TG_CB,Huyện Cai Lậy - Tiền Giang,Tiền Giang,Cai Lậy,10.4,106.1167,2026-03-12 14:01:21,openmeteo,high,2026-03-12T21:00,,25.9,33.3,23.8,27.6,77,91,44,70.1,1011.0,1015.6,1008.2,1011.5,16.2,21.0,0.5,11.2,122,100.4,0.0,0.2,0.1,0.0,0.8,46,93,5,56.1,24.1,24.1,24.1,24.1,5
TG_CL,Huyện Châu Thành - Tiền Giang,Tiền Giang,Châu Thành,10.45,106.25,2026-03-12 14:01:19,openmeteo,high,2026-03-12T21:00,,25.2,33.5,23.2,27.2,80,92,42,71.7,1010.8,1015.6,1008.2,1011.5,12.5,19.2,0.8,9.6,139,107.3,0.0,0.3,0.1,0.0,1.2,29,94,4,54.4,24.1,24.1,24.1,24.1,5
TG_CL2,Huyện Chợ Gạo - Tiền Giang,Tiền Giang,Chợ Gạo,10.35,106.4667,2026-03-12 14:01:20,openmeteo,high,2026-03-12T21:00,,25.8,33.1,23.5,27.4,77,90,44,70.4,1011.1,1015.6,1008.4,1011.6,15.0,21.8,2.4,12.8,117,100.0,0.0,0.1,0.1,0.0,0.2,55,90,0,53.2,24.1,24.1,24.1,24.1,5
TG_CT,Huyện Cái Bè - Tiền Giang,Tiền Giang,Cái Bè,10.3333,105.95,2026-03-12 14:01:19,openmeteo,high,2026-03-12T21:00,,25.5,33.8,23.0,27.4,77,93,41,70.6,1010.9,1015.6,1008.2,1011.5,14.3,19.9,1.1,9.7,129,100.9,0.0,0.6,0.1,0.1,2.1,47,94,0,57.8,24.1,24.1,15.9,24.1,5
TG_GC,Huyện Gò Công Tây - Tiền Giang,Tiền Giang,Gò Công Tây,10.35,106.6,2026-03-12 14:01:19,openmeteo,high,2026-03-12T21:00,,25.8,32.9,23.4,27.2,76,90,44,70.5,1011.0,1015.6,1008.5,1011.6,14.5,22.9,2.0,12.8,117,101.1,0.0,0.1,0.1,0.0,0.3,45,92,0,51.9,24.1,24.1,24.1,24.1,5
TG_GD,Huyện Gò Công Đông - Tiền Giang,Tiền Giang,Gò Công Đông,10.3667,106.7167,2026-03-12 14:01:20,openmeteo,high,2026-03-12T21:00,,25.7,32.2,23.5,27.0,76,88,49,71.7,1010.9,1015.5,1008.7,1011.7,16.1,25.5,1.1,14.9,106,97.0,0.0,0.0,0.0,0.0,0.0,38,92,0,49.6,24.1,24.1,24.1,24.1,5
TG_TP,Huyện Tân Phú Đông - Tiền Giang,Tiền Giang,Tân Phú Đông,10.25,106.6,2026-03-12 14:01:20,openmeteo,high,2026-03-12T21:00,,25.8,32.3,24.1,27.3,77,87,48,70.9,1011.1,1015.5,1008.8,1011.7,16.7,24.9,4.6,15.7,104,95.0,0.0,0.0,0.0,0.0,0.0,45,93,2,51.0,24.1,24.1,24.1,24.1,5
TG_TL,Huyện Tân Phước - Tiền Giang,Tiền Giang,Tân Phước,10.5,106.15,2026-03-12 14:01:20,openmeteo,high,2026-03-12T21:00,,25.2,33.6,23.2,27.2,79,92,40,72.0,1010.8,1015.6,1008.1,1011.5,13.7,18.4,0.4,8.9,135,101.9,0.0,0.8,0.1,0.1,1.5,19,96,3,53.9,24.1,24.1,24.1,24.1,5
TG_MT,Thành phố Mỹ Tho - Tiền Giang,Tiền Giang,Mỹ Tho,10.35,106.35,2026-03-12 14:01:18,openmeteo,high,2026-03-12T21:00,,25.5,33.3,23.2,27.3,78,92,43,70.9,1011.0,1015.6,1008.2,1011.6,13.5,21.0,0.4,11.5,124,102.9,0.0,0.1,0.1,0.0,0.3,47,90,2,53.7,24.1,24.1,24.1,24.1,5
TG_GL,Thị xã Gò Công - Tiền Giang,Tiền Giang,Gò Công,10.3667,106.6667,2026-03-12 14:01:18,openmeteo,high,2026-03-12T21:00,,25.8,32.9,23.4,27.2,76,90,44,70.5,1011.0,1015.6,1008.5,1011.6,14.5,22.9,2.0,12.8,117,101.1,0.0,0.1,0.1,0.0,0.3,45,92,0,51.9,24.1,24.1,24.1,24.1,5
TV_CL,Huyện Càng Long - Trà Vinh,Trà Vinh,Càng Long,9.9667,106.2,2026-03-12 14:02:03,openmeteo,high,2026-03-12T21:00,,25.5,33.0,23.5,27.4,78,92,44,69.6,1011.3,1015.4,1008.5,1011.6,13.9,23.6,5.8,14.4,107,96.4,0.0,0.0,0.0,0.0,0.0,64,93,3,53.2,24.1,24.1,24.1,24.1,5
TV_CN,Huyện Cầu Ngang - Trà Vinh,Trà Vinh,Cầu Ngang,9.8,106.4333,2026-03-12 14:02:02,openmeteo,high,2026-03-12T21:00,,25.4,32.6,23.9,27.1,80,88,45,70.5,1011.4,1015.3,1008.8,1011.8,14.1,27.2,7.9,16.8,94,91.5,0.0,0.0,0.0,0.0,0.0,58,88,0,50.0,24.1,24.1,24.1,24.1,5
TV_TV,Thành phố Trà Vinh - Trà Vinh,Trà Vinh,Trà Vinh,9.9347,106.3453,2026-03-12 14:02:02,openmeteo,high,2026-03-12T21:00,,25.5,33.0,24.0,27.3,78,89,43,69.8,1011.4,1015.3,1008.7,1011.7,14.6,26.4,7.3,16.4,99,93.4,0.0,0.0,0.0,0.0,0.0,55,90,0,51.6,24.1,24.1,24.1,24.1,5
TQ_LB,Huyện Lâm Bình - Tuyên Quang,Tuyên Quang,Lâm Bình,22.4667,105.2167,2026-03-12 14:01:50,openmeteo,high,2026-03-12T21:00,,17.6,26.1,16.4,19.8,94,96,62,85.6,1019.4,1022.9,1010.0,1017.3,2.2,8.1,0.4,3.4,90,159.7,0.0,0.4,0.1,0.1,2.2,75,100,60,94.6,24.1,24.1,9.5,23.0,10
TQ_NH,Huyện Na Hang - Tuyên Quang,Tuyên Quang,Na Hang,22.35,105.3833,2026-03-12 14:01:50,openmeteo,high,2026-03-12T21:00,,19.2,26.5,16.7,21.0,92,96,57,83.7,1019.3,1022.8,1010.2,1017.3,2.0,9.4,0.5,3.9,315,171.2,0.0,0.3,0.1,0.1,2.4,98,100,60,93.9,24.1,24.1,18.7,23.8,10
TQ_TQ,Thành phố Tuyên Quang - Tuyên Quang,Tuyên Quang,Tuyên Quang,21.8181,105.2144,2026-03-12 14:01:49,openmeteo,high,2026-03-12T21:00,,19.2,27.9,17.0,21.7,93,100,64,83.0,1018.7,1022.7,1009.7,1016.9,3.6,13.3,0.4,5.3,53,144.8,0.0,0.9,0.1,0.3,6.1,68,100,65,92.0,24.1,24.1,14.7,23.8,10
TN_TB,Huyện Tân Biên - Tây Ninh,Tây Ninh,Tân Biên,11.55,105.9667,2026-03-12 14:02:01,openmeteo,high,2026-03-12T21:00,,27.1,34.5,21.9,27.9,68,94,36,67.4,1010.0,1015.8,1007.3,1011.4,10.3,14.6,0.5,5.7,168,112.4,0.0,0.8,0.1,0.1,3.1,93,99,0,49.0,24.1,24.1,18.5,24.0,5
TN_TC,Huyện Tân Châu - Tây Ninh,Tây Ninh,Tân Châu,11.3333,106.1667,2026-03-12 14:02:02,openmeteo,high,2026-03-12T21:00,,27.1,35.7,22.2,28.2,73,94,36,67.1,1010.0,1015.7,1007.2,1011.3,14.4,16.5,0.5,6.5,176,86.3,0.0,0.9,0.1,0.1,3.4,59,100,0,48.8,24.1,24.1,16.5,23.9,5
TN_TN2,Thành phố Tây Ninh - Tây Ninh,Tây Ninh,Tây Ninh,11.3131,106.0963,2026-03-12 14:02:01,openmeteo,high,2026-03-12T21:00,,27.2,35.7,22.2,28.2,73,94,36,67.1,1010.0,1015.7,1007.2,1011.3,14.4,16.5,0.5,6.5,176,86.3,0.0,0.9,0.1,0.1,3.4,59,100,0,48.8,24.1,24.1,19.9,24.1,5
VL_BT,Huyện Bình Tân - Vĩnh Long,Vĩnh Long,Bình Tân,10.0833,105.7667,2026-03-12 14:01:24,openmeteo,high,2026-03-12T21:00,,25.5,34.1,23.2,27.4,79,92,40,70.7,1011.0,1015.5,1008.2,1011.5,12.8,18.9,2.2,10.0,122,100.8,0.0,1.6,0.1,0.1,3.1,38,97,0,57.9,24.1,24.1,24.1,24.1,5
VL_LH,Huyện Long Hồ - Vĩnh Long,Vĩnh Long,Long Hồ,10.2,106.0167,2026-03-12 14:01:24,openmeteo,high,2026-03-12T21:00,,25.1,33.9,23.0,27.2,80,93,41,71.3,1011.0,1015.5,1008.2,1011.5,12.7,19.7,1.9,9.9,125,101.8,0.0,1.5,0.1,0.1,2.4,44,95,10,57.3,24.1,24.1,15.9,24.1,5
VL_MT,Huyện Mang Thít - Vĩnh Long,Vĩnh Long,Mang Thít,10.1833,106.1,2026-03-12 14:01:24,openmeteo,high,2026-03-12T21:00,,25.4,33.3,23.3,27.4,78,93,43,69.7,1011.2,1015.5,1008.2,1011.6,13.4,22.1,4.0,12.3,114,98.6,0.0,0.2,0.1,0.0,0.8,52,93,7,55.7,24.1,24.1,15.9,24.1,5
VL_TL,Huyện Tam Bình - Vĩnh Long,Vĩnh Long,Tam Bình,10.0667,105.9833,2026-03-12 14:01:24,openmeteo,high,2026-03-12T21:00,,25.4,33.4,23.1,27.3,78,93,42,70.4,1011.1,1015.5,1008.1,1011.5,13.5,21.1,3.3,11.0,119,100.7,0.0,0.3,0.1,0.0,0.8,45,91,0,55.8,24.1,24.1,24.1,24.1,5
VL_TR,Huyện Trà Ôn - Vĩnh Long,Vĩnh Long,Trà Ôn,9.9667,105.8833,2026-03-12 14:01:25,openmeteo,high,2026-03-12T21:00,,25.6,33.2,23.5,27.3,79,92,45,70.9,1011.1,1015.4,1008.1,1011.5,13.4,19.8,4.3,11.6,114,98.0,0.0,0.3,0.1,0.0,0.7,41,98,0,54.9,24.1,24.1,24.1,24.1,5
VL_VT,Huyện Vũng Liêm - Vĩnh Long,Vĩnh Long,Vũng Liêm,10.0833,106.1667,2026-03-12 14:01:25,openmeteo,high,2026-03-12T21:00,,25.4,33.3,23.3,27.4,78,93,43,69.7,1011.2,1015.5,1008.2,1011.6,13.4,22.1,4.0,12.3,114,98.6,0.0,0.2,0.1,0.0,0.8,52,93,7,55.7,24.1,24.1,24.1,24.1,5
